{
  "type" : "FeatureCollection",
  "features" : [{"type":"Feature","id":1,"geometry":{"type":"Point","coordinates":[35.184665028573583,32.076229746011037]},"properties":{"OBJECTID":1,"UNIT_ID":2101,"Name":"محمد عبد الغافر مرايطة","elec_numb":3271,"Water_numb":2918,"bod_permit":-1,"crafts_lic":0,"Edu_tax":0,"Permit_cus":0,"GDPT":0,"Block_Number":24289,"Parcel_Number":139}},{"type":"Feature","id":2,"geometry":{"type":"Point","coordinates":[35.184253178123029,32.076072644317485]},"properties":{"OBJECTID":2,"UNIT_ID":2104,"Name":"عبدالرحيم عبدالقادر عيسى قدري","elec_numb":3652,"Water_numb":2604,"bod_permit":3804,"crafts_lic":0,"Edu_tax":0,"Permit_cus":0,"GDPT":0,"Block_Number":24289,"Parcel_Number":114}},{"type":"Feature","id":3,"geometry":{"type":"Point","coordinates":[35.184325773779221,32.076009426557192]},"properties":{"OBJECTID":3,"UNIT_ID":2105,"Name":"عبدالرحيم عبدالقادر عيسى قدري","elec_numb":3652,"Water_numb":0,"bod_permit":3686,"crafts_lic":0,"Edu_tax":0,"Permit_cus":0,"GDPT":0,"Block_Number":24289,"Parcel_Number":114}},{"type":"Feature","id":4,"geometry":{"type":"Point","coordinates":[35.184738445682157,32.076235011507869]},"properties":{"OBJECTID":4,"UNIT_ID":2106,"Name":"موسى عبدالغافر مرايطة","elec_numb":3272,"Water_numb":2919,"bod_permit":3285,"crafts_lic":0,"Edu_tax":0,"Permit_cus":0,"GDPT":0,"Block_Number":24289,"Parcel_Number":139}},{"type":"Feature","id":5,"geometry":{"type":"Point","coordinates":[35.180247611143336,32.075675110057126]},"properties":{"OBJECTID":5,"UNIT_ID":2107,"Name":"سهاد سمير محمد عبدالله \nاحمد يسار حسن عبدالله","elec_numb":3542,"Water_numb":2712,"bod_permit":3596,"crafts_lic":0,"Edu_tax":0,"Permit_cus":0,"GDPT":0,"Block_Number":24289,"Parcel_Number":101}},{"type":"Feature","id":6,"geometry":{"type":"Point","coordinates":[35.181761265176917,32.075909647759104]},"properties":{"OBJECTID":6,"UNIT_ID":2108,"Name":"طلب رجا مصطفى زنيط","elec_numb":2126,"Water_numb":1785,"bod_permit":2781,"crafts_lic":0,"Edu_tax":0,"Permit_cus":0,"GDPT":0,"Block_Number":24289,"Parcel_Number":98}},{"type":"Feature","id":7,"geometry":{"type":"Point","coordinates":[35.181554668301992,32.074764907487861]},"properties":{"OBJECTID":7,"UNIT_ID":2109,"Name":"بهجت سعيد حافظ بسيسو","elec_numb":3260,"Water_numb":2377,"bod_permit":2481,"crafts_lic":0,"Edu_tax":0,"Permit_cus":0,"GDPT":0,"Block_Number":24289,"Parcel_Number":129}},{"type":"Feature","id":8,"geometry":{"type":"Point","coordinates":[35.184644480812054,32.076059303901765]},"properties":{"OBJECTID":8,"UNIT_ID":2110,"Name":"عبدالغافر محمد مرايطة","elec_numb":1147,"Water_numb":1022,"bod_permit":-1,"crafts_lic":0,"Edu_tax":0,"Permit_cus":0,"GDPT":0,"Block_Number":24289,"Parcel_Number":113}},{"type":"Feature","id":9,"geometry":{"type":"Point","coordinates":[35.184750976595758,32.076023058364626]},"properties":{"OBJECTID":9,"UNIT_ID":2111,"Name":"عبدالغافر محمد مرايطة","elec_numb":-1,"Water_numb":-1,"bod_permit":1669,"crafts_lic":0,"Edu_tax":0,"Permit_cus":0,"GDPT":0,"Block_Number":24289,"Parcel_Number":113}},{"type":"Feature","id":10,"geometry":{"type":"Point","coordinates":[35.183895126778694,32.07596977391686]},"properties":{"OBJECTID":10,"UNIT_ID":2112,"Name":"فؤاد قاسم حمدان علي","elec_numb":2380,"Water_numb":1977,"bod_permit":2945,"crafts_lic":0,"Edu_tax":0,"Permit_cus":0,"GDPT":0,"Block_Number":24289,"Parcel_Number":117}},{"type":"Feature","id":11,"geometry":{"type":"Point","coordinates":[35.184096223974905,32.075768079624524]},"properties":{"OBJECTID":11,"UNIT_ID":2113,"Name":"مجدي يوسف عبدالحافظ مرايطة","elec_numb":2670,"Water_numb":2132,"bod_permit":2911,"crafts_lic":0,"Edu_tax":0,"Permit_cus":0,"GDPT":0,"Block_Number":24289,"Parcel_Number":116}},{"type":"Feature","id":12,"geometry":{"type":"Point","coordinates":[35.180650210226332,32.075602867351606]},"properties":{"OBJECTID":12,"UNIT_ID":2114,"Name":"بلدية سلفيت","elec_numb":0,"Water_numb":0,"bod_permit":0,"crafts_lic":0,"Edu_tax":0,"Permit_cus":0,"GDPT":0,"Block_Number":24289,"Parcel_Number":99}},{"type":"Feature","id":13,"geometry":{"type":"Point","coordinates":[35.184500354807803,32.076003675742605]},"properties":{"OBJECTID":13,"UNIT_ID":2115,"Name":"مرعب عبدالغافر محمد مرايطة","elec_numb":3296,"Water_numb":4193,"bod_permit":3338,"crafts_lic":0,"Edu_tax":0,"Permit_cus":0,"GDPT":0,"Block_Number":24289,"Parcel_Number":140}},{"type":"Feature","id":14,"geometry":{"type":"Point","coordinates":[35.180045152571189,32.077181663003969]},"properties":{"OBJECTID":14,"UNIT_ID":2137,"Name":"نظام محمود محمد يونس","elec_numb":1941,"Water_numb":1649,"bod_permit":1984,"crafts_lic":0,"Edu_tax":0,"Permit_cus":0,"GDPT":0,"Block_Number":24290,"Parcel_Number":155}},{"type":"Feature","id":15,"geometry":{"type":"Point","coordinates":[35.180623159679548,32.077201895491797]},"properties":{"OBJECTID":15,"UNIT_ID":2138,"Name":"حليمة رضا علي دمدوم","elec_numb":1681,"Water_numb":1392,"bod_permit":2385,"crafts_lic":0,"Edu_tax":0,"Permit_cus":0,"GDPT":0,"Block_Number":24290,"Parcel_Number":151}},{"type":"Feature","id":16,"geometry":{"type":"Point","coordinates":[35.180580959334407,32.077274851374142]},"properties":{"OBJECTID":16,"UNIT_ID":2139,"Name":"حامد حسين حسن أبو عرقوب","elec_numb":4882,"Water_numb":3792,"bod_permit":4196,"crafts_lic":0,"Edu_tax":0,"Permit_cus":0,"GDPT":0,"Block_Number":24290,"Parcel_Number":153}},{"type":"Feature","id":17,"geometry":{"type":"Point","coordinates":[35.179825082094958,32.077491306590105]},"properties":{"OBJECTID":17,"UNIT_ID":2140,"Name":"خالد عبدالله احمد عياش","elec_numb":2547,"Water_numb":2064,"bod_permit":3036,"crafts_lic":0,"Edu_tax":0,"Permit_cus":0,"GDPT":0,"Block_Number":24290,"Parcel_Number":146}},{"type":"Feature","id":18,"geometry":{"type":"Point","coordinates":[35.180317778745128,32.076735731153022]},"properties":{"OBJECTID":18,"UNIT_ID":2141,"Name":"خميس طه حسن شتية","elec_numb":2739,"Water_numb":1223,"bod_permit":-1,"crafts_lic":0,"Edu_tax":0,"Permit_cus":0,"GDPT":0,"Block_Number":24290,"Parcel_Number":165}},{"type":"Feature","id":19,"geometry":{"type":"Point","coordinates":[35.180345799017708,32.076741106849802]},"properties":{"OBJECTID":19,"UNIT_ID":2142,"Name":"خميس طه حسن شتية","elec_numb":2918,"Water_numb":2614,"bod_permit":1850,"crafts_lic":0,"Edu_tax":0,"Permit_cus":0,"GDPT":0,"Block_Number":24290,"Parcel_Number":165}},{"type":"Feature","id":20,"geometry":{"type":"Point","coordinates":[35.180253019955067,32.07725270491504]},"properties":{"OBJECTID":20,"UNIT_ID":2143,"Name":"رامي يوسف عبدالحافظ قدرة","elec_numb":1692,"Water_numb":1505,"bod_permit":2444,"crafts_lic":0,"Edu_tax":0,"Permit_cus":0,"GDPT":0,"Block_Number":24290,"Parcel_Number":154}},{"type":"Feature","id":21,"geometry":{"type":"Point","coordinates":[35.180282161043586,32.077260824315459]},"properties":{"OBJECTID":21,"UNIT_ID":2144,"Name":"رامي يوسف عبدالحافظ قدري","elec_numb":3495,"Water_numb":2669,"bod_permit":2427,"crafts_lic":0,"Edu_tax":0,"Permit_cus":0,"GDPT":0,"Block_Number":24290,"Parcel_Number":154}},{"type":"Feature","id":22,"geometry":{"type":"Point","coordinates":[35.180032918852852,32.076218619767459]},"properties":{"OBJECTID":22,"UNIT_ID":10328,"Name":"مروان عبدالرؤوف جودت عبدالجواد","elec_numb":2912,"Water_numb":2228,"bod_permit":3381,"crafts_lic":0,"Edu_tax":0,"Permit_cus":0,"GDPT":0,"Block_Number":24289,"Parcel_Number":67}},{"type":"Feature","id":23,"geometry":{"type":"Point","coordinates":[35.181592394575638,32.076525838916218]},"properties":{"OBJECTID":23,"UNIT_ID":2170,"Name":"بلال شحادة سعيد المصري","elec_numb":937,"Water_numb":816,"bod_permit":1271,"crafts_lic":0,"Edu_tax":0,"Permit_cus":0,"GDPT":0,"Block_Number":24289,"Parcel_Number":62}},{"type":"Feature","id":24,"geometry":{"type":"Point","coordinates":[35.18161382116881,32.07448930736426]},"properties":{"OBJECTID":24,"UNIT_ID":2171,"Name":"منى اسماعيل محمد غوراني","elec_numb":1732,"Water_numb":1524,"bod_permit":2480,"crafts_lic":0,"Edu_tax":0,"Permit_cus":0,"GDPT":0,"Block_Number":24289,"Parcel_Number":130}},{"type":"Feature","id":25,"geometry":{"type":"Point","coordinates":[35.181713562747646,32.074538843447726]},"properties":{"OBJECTID":25,"UNIT_ID":2172,"Name":"محمد أنور اسماعيل غوراني","elec_numb":4865,"Water_numb":3781,"bod_permit":3983,"crafts_lic":0,"Edu_tax":0,"Permit_cus":0,"GDPT":0,"Block_Number":24289,"Parcel_Number":130}},{"type":"Feature","id":26,"geometry":{"type":"Point","coordinates":[35.184252271099453,32.07587824355921]},"properties":{"OBJECTID":26,"UNIT_ID":2173,"Name":"محمد يوسف عبدالحافظ مرايطة","elec_numb":0,"Water_numb":0,"bod_permit":2651,"crafts_lic":0,"Edu_tax":0,"Permit_cus":0,"GDPT":0,"Block_Number":24289,"Parcel_Number":115}},{"type":"Feature","id":27,"geometry":{"type":"Point","coordinates":[35.180413730056685,32.076211737947304]},"properties":{"OBJECTID":27,"UNIT_ID":2174,"Name":"عبد\u00A0الحليم\u00A0صبحي\u00A0عبد\u00A0الله\u00A0عفانة","elec_numb":2143,"Water_numb":1803,"bod_permit":2779,"crafts_lic":0,"Edu_tax":0,"Permit_cus":0,"GDPT":0,"Block_Number":24289,"Parcel_Number":66}},{"type":"Feature","id":28,"geometry":{"type":"Point","coordinates":[35.181592402890139,32.076500784796558]},"properties":{"OBJECTID":28,"UNIT_ID":2175,"Name":"بلال شحادة سعيد المصري","elec_numb":-1,"Water_numb":-1,"bod_permit":0,"crafts_lic":0,"Edu_tax":0,"Permit_cus":0,"GDPT":0,"Block_Number":24289,"Parcel_Number":62}},{"type":"Feature","id":29,"geometry":{"type":"Point","coordinates":[35.181530773185997,32.076442905852126]},"properties":{"OBJECTID":29,"UNIT_ID":2176,"Name":"بلال شحادة سعيد المصري","elec_numb":-1,"Water_numb":-1,"bod_permit":1820,"crafts_lic":0,"Edu_tax":0,"Permit_cus":0,"GDPT":0,"Block_Number":24289,"Parcel_Number":62}},{"type":"Feature","id":30,"geometry":{"type":"Point","coordinates":[35.182457196073017,32.080354903559069]},"properties":{"OBJECTID":30,"UNIT_ID":2177,"Name":"ياسر شعبان درويش","elec_numb":5376,"Water_numb":-1,"bod_permit":3831,"crafts_lic":0,"Edu_tax":0,"Permit_cus":0,"GDPT":0,"Block_Number":24290,"Parcel_Number":11}},{"type":"Feature","id":31,"geometry":{"type":"Point","coordinates":[35.18291986042852,32.080183716591492]},"properties":{"OBJECTID":31,"UNIT_ID":2178,"Name":"مروان ابراهيم عبدالحافظ شتية \nفاطمة حست عبدالقادر شتية","elec_numb":1215,"Water_numb":1083,"bod_permit":1411,"crafts_lic":0,"Edu_tax":0,"Permit_cus":0,"GDPT":0,"Block_Number":24290,"Parcel_Number":12}},{"type":"Feature","id":32,"geometry":{"type":"Point","coordinates":[35.182465052306853,32.080327226023769]},"properties":{"OBJECTID":32,"UNIT_ID":2180,"Name":"ياسر شعبان درويش","elec_numb":-1,"Water_numb":-1,"bod_permit":4186,"crafts_lic":0,"Edu_tax":0,"Permit_cus":0,"GDPT":0,"Block_Number":24290,"Parcel_Number":11}},{"type":"Feature","id":33,"geometry":{"type":"Point","coordinates":[35.182933300366912,32.080219511136605]},"properties":{"OBJECTID":33,"UNIT_ID":2181,"Name":"مروان ابراهيم عبدالحافظ شتية \nفاطمة حست عبدالقادر شتية","elec_numb":-1,"Water_numb":-1,"bod_permit":1761,"crafts_lic":0,"Edu_tax":0,"Permit_cus":0,"GDPT":0,"Block_Number":24290,"Parcel_Number":12}},{"type":"Feature","id":34,"geometry":{"type":"Point","coordinates":[35.180182875948795,32.080459573940658]},"properties":{"OBJECTID":34,"UNIT_ID":2182,"Name":"حليمة محمد احمد منصور","elec_numb":2998,"Water_numb":2555,"bod_permit":3187,"crafts_lic":0,"Edu_tax":0,"Permit_cus":0,"GDPT":0,"Block_Number":24290,"Parcel_Number":2}},{"type":"Feature","id":35,"geometry":{"type":"Point","coordinates":[35.181840384668668,32.079751654673728]},"properties":{"OBJECTID":35,"UNIT_ID":2183,"Name":"احمد محمد ماجد خضر رمضان","elec_numb":3562,"Water_numb":2724,"bod_permit":3385,"crafts_lic":0,"Edu_tax":0,"Permit_cus":0,"GDPT":0,"Block_Number":24290,"Parcel_Number":24}},{"type":"Feature","id":36,"geometry":{"type":"Point","coordinates":[35.18188648289258,32.079752619818137]},"properties":{"OBJECTID":36,"UNIT_ID":2184,"Name":"أسامة محمد ماجد خضر رمضان","elec_numb":-1,"Water_numb":-1,"bod_permit":4747,"crafts_lic":0,"Edu_tax":0,"Permit_cus":0,"GDPT":0,"Block_Number":24290,"Parcel_Number":24}},{"type":"Feature","id":37,"geometry":{"type":"Point","coordinates":[35.182424358262082,32.080097899415179]},"properties":{"OBJECTID":37,"UNIT_ID":10398,"Name":"نادر\u00A0عبد\u00A0الرحيم\u00A0ذياب\u00A0عوده\u00A0/\u00A0نادر\u00A0عبد\u00A0الرحيم\u00A0ذياب\u00A0عوده","elec_numb":3814,"Water_numb":1707,"bod_permit":3806,"crafts_lic":0,"Edu_tax":0,"Permit_cus":0,"GDPT":0,"Block_Number":24290,"Parcel_Number":10}},{"type":"Feature","id":38,"geometry":{"type":"Point","coordinates":[35.180218165566686,32.080693212508756]},"properties":{"OBJECTID":38,"UNIT_ID":2186,"Name":"حسن عبدالجبار شيق حسن شاهين","elec_numb":3011,"Water_numb":2242,"bod_permit":3750,"crafts_lic":0,"Edu_tax":0,"Permit_cus":0,"GDPT":0,"Block_Number":24290,"Parcel_Number":1}},{"type":"Feature","id":39,"geometry":{"type":"Point","coordinates":[35.182579688622148,32.080289781182195]},"properties":{"OBJECTID":39,"UNIT_ID":2187,"Name":"شعبان درويش صالح شتية","elec_numb":1554,"Water_numb":1306,"bod_permit":1566,"crafts_lic":0,"Edu_tax":0,"Permit_cus":0,"GDPT":0,"Block_Number":24290,"Parcel_Number":11}},{"type":"Feature","id":40,"geometry":{"type":"Point","coordinates":[35.180575331126029,32.077345956738924]},"properties":{"OBJECTID":40,"UNIT_ID":2188,"Name":"رماح جمال عبدالحفيظ عياش","elec_numb":4742,"Water_numb":3683,"bod_permit":-1,"crafts_lic":0,"Edu_tax":0,"Permit_cus":0,"GDPT":0,"Block_Number":24290,"Parcel_Number":153}},{"type":"Feature","id":41,"geometry":{"type":"Point","coordinates":[35.18039038672503,32.077327776345342]},"properties":{"OBJECTID":41,"UNIT_ID":2189,"Name":"معين فؤاد احمد محمود","elec_numb":-1,"Water_numb":-1,"bod_permit":-1,"crafts_lic":0,"Edu_tax":0,"Permit_cus":0,"GDPT":0,"Block_Number":24290,"Parcel_Number":153}},{"type":"Feature","id":42,"geometry":{"type":"Point","coordinates":[35.180361790723893,32.07736356065849]},"properties":{"OBJECTID":42,"UNIT_ID":2190,"Name":"معين فؤاد احمد محمود","elec_numb":-1,"Water_numb":-1,"bod_permit":-1,"crafts_lic":0,"Edu_tax":0,"Permit_cus":0,"GDPT":0,"Block_Number":24290,"Parcel_Number":153}},{"type":"Feature","id":43,"geometry":{"type":"Point","coordinates":[35.180420639192739,32.077362621226207]},"properties":{"OBJECTID":43,"UNIT_ID":2191,"Name":"رماح جمال عبدالحفيظ عياش","elec_numb":4462,"Water_numb":3194,"bod_permit":-1,"crafts_lic":0,"Edu_tax":0,"Permit_cus":0,"GDPT":0,"Block_Number":24290,"Parcel_Number":153}},{"type":"Feature","id":44,"geometry":{"type":"Point","coordinates":[35.180449222609596,32.077360242086904]},"properties":{"OBJECTID":44,"UNIT_ID":2192,"Name":"ميس زهد زاهد عرام","elec_numb":4843,"Water_numb":3761,"bod_permit":-1,"crafts_lic":0,"Edu_tax":0,"Permit_cus":0,"GDPT":0,"Block_Number":24290,"Parcel_Number":153}},{"type":"Feature","id":45,"geometry":{"type":"Point","coordinates":[35.180522644881776,32.07735548783873]},"properties":{"OBJECTID":45,"UNIT_ID":2193,"Name":"علي جمال خميس الحمد","elec_numb":4748,"Water_numb":3689,"bod_permit":-1,"crafts_lic":0,"Edu_tax":0,"Permit_cus":0,"GDPT":0,"Block_Number":24290,"Parcel_Number":153}},{"type":"Feature","id":46,"geometry":{"type":"Point","coordinates":[35.18039037470799,32.077362612758478]},"properties":{"OBJECTID":46,"UNIT_ID":2194,"Name":"معين فؤاد احمد محمود","elec_numb":4776,"Water_numb":-1,"bod_permit":-1,"crafts_lic":0,"Edu_tax":0,"Permit_cus":0,"GDPT":0,"Block_Number":24290,"Parcel_Number":153}},{"type":"Feature","id":47,"geometry":{"type":"Point","coordinates":[35.180496301755397,32.077360253831309]},"properties":{"OBJECTID":47,"UNIT_ID":2195,"Name":"رماح جمال عبدالحفيظ عياش","elec_numb":-1,"Water_numb":-1,"bod_permit":-1,"crafts_lic":0,"Edu_tax":0,"Permit_cus":0,"GDPT":0,"Block_Number":24290,"Parcel_Number":153}},{"type":"Feature","id":48,"geometry":{"type":"Point","coordinates":[35.180521555729136,32.07726099689939]},"properties":{"OBJECTID":48,"UNIT_ID":2196,"Name":"معين فؤاد احمد محمود","elec_numb":4775,"Water_numb":-1,"bod_permit":-1,"crafts_lic":0,"Edu_tax":0,"Permit_cus":0,"GDPT":0,"Block_Number":24290,"Parcel_Number":153}},{"type":"Feature","id":49,"geometry":{"type":"Point","coordinates":[35.18066950629597,32.077287280921496]},"properties":{"OBJECTID":49,"UNIT_ID":2197,"Name":"منير محمد نعيم عبداللطيف زهد","elec_numb":4778,"Water_numb":3723,"bod_permit":4084,"crafts_lic":0,"Edu_tax":0,"Permit_cus":0,"GDPT":0,"Block_Number":24290,"Parcel_Number":153}},{"type":"Feature","id":50,"geometry":{"type":"Point","coordinates":[35.180494068777584,32.077333528040228]},"properties":{"OBJECTID":50,"UNIT_ID":2198,"Name":"محمد سمير فريد عبدالله","elec_numb":-1,"Water_numb":-1,"bod_permit":-1,"crafts_lic":0,"Edu_tax":0,"Permit_cus":0,"GDPT":0,"Block_Number":24290,"Parcel_Number":153}},{"type":"Feature","id":51,"geometry":{"type":"Point","coordinates":[35.180434691121249,32.077244272187457]},"properties":{"OBJECTID":51,"UNIT_ID":2199,"Name":"معين فؤاد احمد محمود","elec_numb":4774,"Water_numb":3710,"bod_permit":-1,"crafts_lic":0,"Edu_tax":0,"Permit_cus":0,"GDPT":0,"Block_Number":24290,"Parcel_Number":153}},{"type":"Feature","id":52,"geometry":{"type":"Point","coordinates":[35.180837745457083,32.077509975085171]},"properties":{"OBJECTID":52,"UNIT_ID":2318,"Name":"الهام\u00A0طلعت\u00A0عبد\u00A0الرؤوف\u00A0زبيديه\u00A0/\u00A0الهام\u00A0طلعت\u00A0عبد\u00A0الرؤوف\u00A0زبيديه","elec_numb":5401,"Water_numb":4142,"bod_permit":-1,"crafts_lic":0,"Edu_tax":0,"Permit_cus":0,"GDPT":0,"Block_Number":24290,"Parcel_Number":140}},{"type":"Feature","id":53,"geometry":{"type":"Point","coordinates":[35.180819266340428,32.077464872033246]},"properties":{"OBJECTID":53,"UNIT_ID":2319,"Name":"بسمة موسى عبد الرحمن شتية","elec_numb":3979,"Water_numb":3079,"bod_permit":-1,"crafts_lic":0,"Edu_tax":0,"Permit_cus":0,"GDPT":0,"Block_Number":24290,"Parcel_Number":140}},{"type":"Feature","id":54,"geometry":{"type":"Point","coordinates":[35.180780587164648,32.077486337184503]},"properties":{"OBJECTID":54,"UNIT_ID":2320,"Name":"ابتسام عبد الرحيم خضر شيتة","elec_numb":3849,"Water_numb":2954,"bod_permit":-1,"crafts_lic":0,"Edu_tax":0,"Permit_cus":0,"GDPT":0,"Block_Number":24290,"Parcel_Number":140}},{"type":"Feature","id":55,"geometry":{"type":"Point","coordinates":[35.180815011180648,32.077613049300169]},"properties":{"OBJECTID":55,"UNIT_ID":2321,"Name":"عمر\u00A0ابراهيم\u00A0انيس\u00A0شاهين\u00A0/\u00A0عمر\u00A0ابراهيم\u00A0انيس\u00A0شاهين","elec_numb":4094,"Water_numb":3191,"bod_permit":-1,"crafts_lic":0,"Edu_tax":0,"Permit_cus":0,"GDPT":0,"Block_Number":24290,"Parcel_Number":140}},{"type":"Feature","id":56,"geometry":{"type":"Point","coordinates":[35.180877200327316,32.077677490533787]},"properties":{"OBJECTID":56,"UNIT_ID":2322,"Name":"ابتسام عبد الرحيم خضر شتية","elec_numb":4060,"Water_numb":3160,"bod_permit":-1,"crafts_lic":0,"Edu_tax":0,"Permit_cus":0,"GDPT":0,"Block_Number":24290,"Parcel_Number":140}},{"type":"Feature","id":57,"geometry":{"type":"Point","coordinates":[35.180831810547957,32.077658151937406]},"properties":{"OBJECTID":57,"UNIT_ID":2323,"Name":"ميادة محمد سليمان شتية","elec_numb":3708,"Water_numb":3300,"bod_permit":-1,"crafts_lic":0,"Edu_tax":0,"Permit_cus":0,"GDPT":0,"Block_Number":24290,"Parcel_Number":140}},{"type":"Feature","id":58,"geometry":{"type":"Point","coordinates":[35.18080073402264,32.077572959729885]},"properties":{"OBJECTID":58,"UNIT_ID":2324,"Name":"ابتسام عبد الرحيم خضر شتية","elec_numb":3715,"Water_numb":2842,"bod_permit":-1,"crafts_lic":0,"Edu_tax":0,"Permit_cus":0,"GDPT":0,"Block_Number":24290,"Parcel_Number":140}},{"type":"Feature","id":59,"geometry":{"type":"Point","coordinates":[35.18090158234309,32.07767177073103]},"properties":{"OBJECTID":59,"UNIT_ID":2325,"Name":"احمد\u00A0محمد\u00A0علي\u00A0داود","elec_numb":3692,"Water_numb":2840,"bod_permit":-1,"crafts_lic":0,"Edu_tax":0,"Permit_cus":0,"GDPT":0,"Block_Number":24290,"Parcel_Number":140}},{"type":"Feature","id":60,"geometry":{"type":"Point","coordinates":[35.1809403114666,32.077499978146349]},"properties":{"OBJECTID":60,"UNIT_ID":2326,"Name":"الفت يوسف رشدي سليم","elec_numb":4170,"Water_numb":3456,"bod_permit":3728,"crafts_lic":0,"Edu_tax":0,"Permit_cus":0,"GDPT":0,"Block_Number":24290,"Parcel_Number":140}},{"type":"Feature","id":61,"geometry":{"type":"Point","coordinates":[35.180878106921455,32.077484214849655]},"properties":{"OBJECTID":61,"UNIT_ID":2327,"Name":"نهاية كامل احمد الحمادي","elec_numb":3672,"Water_numb":2988,"bod_permit":-1,"crafts_lic":0,"Edu_tax":0,"Permit_cus":0,"GDPT":0,"Block_Number":24290,"Parcel_Number":140}},{"type":"Feature","id":62,"geometry":{"type":"Point","coordinates":[35.180934383276309,32.077628827595134]},"properties":{"OBJECTID":62,"UNIT_ID":2328,"Name":"مجدي\u00A0يسار\u00A0حسن\u00A0عبد\u00A0الله\u00A0/\u00A0مجدي\u00A0يسار\u00A0حسن\u00A0عبد\u00A0الله","elec_numb":-1,"Water_numb":3192,"bod_permit":-1,"crafts_lic":0,"Edu_tax":0,"Permit_cus":0,"GDPT":0,"Block_Number":24290,"Parcel_Number":140}},{"type":"Feature","id":63,"geometry":{"type":"Point","coordinates":[35.180893228447943,32.0775142833334]},"properties":{"OBJECTID":63,"UNIT_ID":2329,"Name":"\u00A0سامر\u00A0عاطف\u00A0احمد\u00A0عط","elec_numb":3697,"Water_numb":2847,"bod_permit":-1,"crafts_lic":0,"Edu_tax":0,"Permit_cus":0,"GDPT":0,"Block_Number":24290,"Parcel_Number":140}},{"type":"Feature","id":64,"geometry":{"type":"Point","coordinates":[35.180916746491839,32.077579431087884]},"properties":{"OBJECTID":64,"UNIT_ID":2330,"Name":"خالد مطر احمد جبريل","elec_numb":3679,"Water_numb":2841,"bod_permit":-1,"crafts_lic":0,"Edu_tax":0,"Permit_cus":0,"GDPT":0,"Block_Number":24290,"Parcel_Number":140}},{"type":"Feature","id":65,"geometry":{"type":"Point","coordinates":[35.180983146060811,32.077620965576067]},"properties":{"OBJECTID":65,"UNIT_ID":2331,"Name":"عبد الجبار ياسر عبد الجبار ابو زاهر","elec_numb":3722,"Water_numb":-1,"bod_permit":-1,"crafts_lic":0,"Edu_tax":0,"Permit_cus":0,"GDPT":0,"Block_Number":24290,"Parcel_Number":140}},{"type":"Feature","id":66,"geometry":{"type":"Point","coordinates":[35.180862146892132,32.077446986420838]},"properties":{"OBJECTID":66,"UNIT_ID":2332,"Name":"محمد\u00A0سائد\u00A0محمود\u00A0شتيه\u00A0/\u00A0محمد\u00A0سائد\u00A0محمود\u00A0شتيه","elec_numb":4113,"Water_numb":3201,"bod_permit":-1,"crafts_lic":0,"Edu_tax":0,"Permit_cus":0,"GDPT":0,"Block_Number":24290,"Parcel_Number":140}},{"type":"Feature","id":67,"geometry":{"type":"Point","coordinates":[35.181003308638083,32.077661772633029]},"properties":{"OBJECTID":67,"UNIT_ID":2333,"Name":"علاء محمد مصطفى يونس","elec_numb":3914,"Water_numb":3031,"bod_permit":-1,"crafts_lic":0,"Edu_tax":0,"Permit_cus":0,"GDPT":0,"Block_Number":24290,"Parcel_Number":140}},{"type":"Feature","id":68,"geometry":{"type":"Point","coordinates":[35.180971389066052,32.077582307869328]},"properties":{"OBJECTID":68,"UNIT_ID":2334,"Name":"سمير محمد عبد الله الرمال","elec_numb":3681,"Water_numb":2846,"bod_permit":-1,"crafts_lic":0,"Edu_tax":0,"Permit_cus":0,"GDPT":0,"Block_Number":24290,"Parcel_Number":140}},{"type":"Feature","id":69,"geometry":{"type":"Point","coordinates":[35.180951225639596,32.077547225709822]},"properties":{"OBJECTID":69,"UNIT_ID":2335,"Name":"تامر عمر حسين شتية","elec_numb":-1,"Water_numb":3119,"bod_permit":-1,"crafts_lic":0,"Edu_tax":0,"Permit_cus":0,"GDPT":0,"Block_Number":24290,"Parcel_Number":140}},{"type":"Feature","id":70,"geometry":{"type":"Point","coordinates":[35.180903306753137,32.077546498765791]},"properties":{"OBJECTID":70,"UNIT_ID":2336,"Name":"نبيل مصطفى صالح ابو سليمة","elec_numb":3893,"Water_numb":2999,"bod_permit":-1,"crafts_lic":0,"Edu_tax":0,"Permit_cus":0,"GDPT":0,"Block_Number":24290,"Parcel_Number":140}},{"type":"Feature","id":71,"geometry":{"type":"Point","coordinates":[35.180915119724268,32.077416934700551]},"properties":{"OBJECTID":71,"UNIT_ID":2337,"Name":"آلاء مرشد صبيح حسن ، اشرف ابراهيم عثمان حسن","elec_numb":3671,"Water_numb":2822,"bod_permit":-1,"crafts_lic":0,"Edu_tax":0,"Permit_cus":0,"GDPT":0,"Block_Number":24290,"Parcel_Number":140}},{"type":"Feature","id":72,"geometry":{"type":"Point","coordinates":[35.180930237941695,32.077459888721108]},"properties":{"OBJECTID":72,"UNIT_ID":2340,"Name":"ثائر عبد الرحمن عمر ياسين","elec_numb":3767,"Water_numb":-1,"bod_permit":-1,"crafts_lic":0,"Edu_tax":0,"Permit_cus":0,"GDPT":0,"Block_Number":24290,"Parcel_Number":140}},{"type":"Feature","id":73,"geometry":{"type":"Point","coordinates":[35.180852019214591,32.077560086838943]},"properties":{"OBJECTID":73,"UNIT_ID":2378,"Name":"صفاء\u00A0عيسى\u00A0يوسف\u00A0علقم\u00A0/\u00A0صفاء\u00A0عيسى\u00A0يوسف\u00A0علقم","elec_numb":3837,"Water_numb":2942,"bod_permit":-1,"crafts_lic":0,"Edu_tax":0,"Permit_cus":0,"GDPT":0,"Block_Number":24290,"Parcel_Number":140}},{"type":"Feature","id":74,"geometry":{"type":"Point","coordinates":[35.180870291111859,32.077597970576306]},"properties":{"OBJECTID":74,"UNIT_ID":2379,"Name":"امين جبر امين محبوبة","elec_numb":5161,"Water_numb":4064,"bod_permit":-1,"crafts_lic":0,"Edu_tax":0,"Permit_cus":0,"GDPT":0,"Block_Number":24290,"Parcel_Number":140}},{"type":"Feature","id":75,"geometry":{"type":"Point","coordinates":[35.180789331969308,32.077521714160419]},"properties":{"OBJECTID":75,"UNIT_ID":2381,"Name":"رائدة نسيم صالح زير","elec_numb":3438,"Water_numb":2626,"bod_permit":-1,"crafts_lic":0,"Edu_tax":0,"Permit_cus":0,"GDPT":0,"Block_Number":24290,"Parcel_Number":140}},{"type":"Feature","id":76,"geometry":{"type":"Point","coordinates":[35.183186889787628,32.079449840562404]},"properties":{"OBJECTID":76,"UNIT_ID":2546,"Name":"جمال عبد الفتاح عبد الجبار شاهين","elec_numb":4594,"Water_numb":3587,"bod_permit":-1,"crafts_lic":0,"Edu_tax":0,"Permit_cus":0,"GDPT":0,"Block_Number":24290,"Parcel_Number":169}},{"type":"Feature","id":77,"geometry":{"type":"Point","coordinates":[35.182783698684695,32.079242869616486]},"properties":{"OBJECTID":77,"UNIT_ID":2547,"Name":"بلال ربيع فايز دقروق","elec_numb":4595,"Water_numb":3586,"bod_permit":-1,"crafts_lic":0,"Edu_tax":0,"Permit_cus":0,"GDPT":0,"Block_Number":24290,"Parcel_Number":169}},{"type":"Feature","id":78,"geometry":{"type":"Point","coordinates":[35.182821510797517,32.07930420280146]},"properties":{"OBJECTID":78,"UNIT_ID":2550,"Name":"رفيق صالح عبد الكريم عثمان","elec_numb":4741,"Water_numb":3680,"bod_permit":-1,"crafts_lic":0,"Edu_tax":0,"Permit_cus":0,"GDPT":0,"Block_Number":24290,"Parcel_Number":169}},{"type":"Feature","id":79,"geometry":{"type":"Point","coordinates":[35.182868024394082,32.079320558543515]},"properties":{"OBJECTID":79,"UNIT_ID":2551,"Name":"محمد صرفندي محمود ظاهر","elec_numb":4579,"Water_numb":3590,"bod_permit":-1,"crafts_lic":0,"Edu_tax":0,"Permit_cus":0,"GDPT":0,"Block_Number":24290,"Parcel_Number":169}},{"type":"Feature","id":80,"geometry":{"type":"Point","coordinates":[35.182824748676751,32.079257434853851]},"properties":{"OBJECTID":80,"UNIT_ID":2552,"Name":"داليا صالح عصفور ابو شمة","elec_numb":4662,"Water_numb":3628,"bod_permit":-1,"crafts_lic":0,"Edu_tax":0,"Permit_cus":0,"GDPT":0,"Block_Number":24290,"Parcel_Number":169}},{"type":"Feature","id":81,"geometry":{"type":"Point","coordinates":[35.182855428687674,32.079274980082374]},"properties":{"OBJECTID":81,"UNIT_ID":2553,"Name":"سناء\u00A0جميل\u00A0نمر\u00A0بني\u00A0نمره\u00A0/\u00A0سناء\u00A0جميل\u00A0نمر\u00A0بني\u00A0نمره","elec_numb":-1,"Water_numb":-1,"bod_permit":-1,"crafts_lic":0,"Edu_tax":0,"Permit_cus":0,"GDPT":0,"Block_Number":24290,"Parcel_Number":169}},{"type":"Feature","id":82,"geometry":{"type":"Point","coordinates":[35.182996355378435,32.079372605490221]},"properties":{"OBJECTID":82,"UNIT_ID":2554,"Name":"فراس سلمان اسماعيل ابو عرام","elec_numb":4856,"Water_numb":3772,"bod_permit":-1,"crafts_lic":0,"Edu_tax":0,"Permit_cus":0,"GDPT":0,"Block_Number":24290,"Parcel_Number":169}},{"type":"Feature","id":83,"geometry":{"type":"Point","coordinates":[35.183018784472516,32.079337296254614]},"properties":{"OBJECTID":83,"UNIT_ID":2555,"Name":"هاني رضا عبد الله عبد الله","elec_numb":4617,"Water_numb":3602,"bod_permit":-1,"crafts_lic":0,"Edu_tax":0,"Permit_cus":0,"GDPT":0,"Block_Number":24290,"Parcel_Number":169}},{"type":"Feature","id":84,"geometry":{"type":"Point","coordinates":[35.182927999855892,32.079303273198065]},"properties":{"OBJECTID":84,"UNIT_ID":2556,"Name":"عماد عبد الله سعيد بشر","elec_numb":4574,"Water_numb":3571,"bod_permit":-1,"crafts_lic":0,"Edu_tax":0,"Permit_cus":0,"GDPT":0,"Block_Number":24290,"Parcel_Number":169}},{"type":"Feature","id":85,"geometry":{"type":"Point","coordinates":[35.182770935739235,32.079283430677684]},"properties":{"OBJECTID":85,"UNIT_ID":2557,"Name":"روينة فخري عبد الجبار جبرين","elec_numb":4586,"Water_numb":3583,"bod_permit":-1,"crafts_lic":0,"Edu_tax":0,"Permit_cus":0,"GDPT":0,"Block_Number":24290,"Parcel_Number":169}},{"type":"Feature","id":86,"geometry":{"type":"Point","coordinates":[35.183142197346505,32.079431576151308]},"properties":{"OBJECTID":86,"UNIT_ID":2558,"Name":"مازن محمود نمر عودة","elec_numb":4588,"Water_numb":3574,"bod_permit":-1,"crafts_lic":0,"Edu_tax":0,"Permit_cus":0,"GDPT":0,"Block_Number":24290,"Parcel_Number":169}},{"type":"Feature","id":87,"geometry":{"type":"Point","coordinates":[35.183222616634858,32.079457722699047]},"properties":{"OBJECTID":87,"UNIT_ID":2559,"Name":"نجاح كامل حسن عودة","elec_numb":4587,"Water_numb":3573,"bod_permit":-1,"crafts_lic":0,"Edu_tax":0,"Permit_cus":0,"GDPT":0,"Block_Number":24290,"Parcel_Number":169}},{"type":"Feature","id":88,"geometry":{"type":"Point","coordinates":[35.182949701282162,32.079354937581016]},"properties":{"OBJECTID":88,"UNIT_ID":2560,"Name":"زياد عبد الله سعيد بشر","elec_numb":4573,"Water_numb":3572,"bod_permit":-1,"crafts_lic":0,"Edu_tax":0,"Permit_cus":0,"GDPT":0,"Block_Number":24290,"Parcel_Number":169}},{"type":"Feature","id":89,"geometry":{"type":"Point","coordinates":[35.182906832143686,32.079335361323764]},"properties":{"OBJECTID":89,"UNIT_ID":2561,"Name":"محمد محي الدين عصفور حسين","elec_numb":4602,"Water_numb":3585,"bod_permit":-1,"crafts_lic":0,"Edu_tax":0,"Permit_cus":0,"GDPT":0,"Block_Number":24290,"Parcel_Number":169}},{"type":"Feature","id":90,"geometry":{"type":"Point","coordinates":[35.183180459986602,32.079398417791822]},"properties":{"OBJECTID":90,"UNIT_ID":2562,"Name":"احمد نهاد ياسين دحنوس","elec_numb":4604,"Water_numb":3595,"bod_permit":-1,"crafts_lic":0,"Edu_tax":0,"Permit_cus":0,"GDPT":0,"Block_Number":24290,"Parcel_Number":169}},{"type":"Feature","id":91,"geometry":{"type":"Point","coordinates":[35.183101023758908,32.079368572982347]},"properties":{"OBJECTID":91,"UNIT_ID":2563,"Name":"داعس سعيد عبد الله عواد","elec_numb":4076,"Water_numb":3176,"bod_permit":-1,"crafts_lic":0,"Edu_tax":0,"Permit_cus":0,"GDPT":0,"Block_Number":24290,"Parcel_Number":169}},{"type":"Feature","id":92,"geometry":{"type":"Point","coordinates":[35.183093022682947,32.079413072612354]},"properties":{"OBJECTID":92,"UNIT_ID":2564,"Name":"عبد الكريم ناجح عبد الحكم خفش","elec_numb":4645,"Water_numb":3620,"bod_permit":-1,"crafts_lic":0,"Edu_tax":0,"Permit_cus":0,"GDPT":0,"Block_Number":24290,"Parcel_Number":169}},{"type":"Feature","id":93,"geometry":{"type":"Point","coordinates":[35.183042727724576,32.07939373369058]},"properties":{"OBJECTID":93,"UNIT_ID":2565,"Name":"سناء أنور فارس","elec_numb":4790,"Water_numb":3720,"bod_permit":-1,"crafts_lic":0,"Edu_tax":0,"Permit_cus":0,"GDPT":0,"Block_Number":24290,"Parcel_Number":169}},{"type":"Feature","id":94,"geometry":{"type":"Point","coordinates":[35.183215484279515,32.079414054721276]},"properties":{"OBJECTID":94,"UNIT_ID":2566,"Name":"وسيم محمد رياض عبد الجليل صالح","elec_numb":4584,"Water_numb":3588,"bod_permit":-1,"crafts_lic":0,"Edu_tax":0,"Permit_cus":0,"GDPT":0,"Block_Number":24290,"Parcel_Number":169}},{"type":"Feature","id":95,"geometry":{"type":"Point","coordinates":[35.183247146537127,32.07942730459844]},"properties":{"OBJECTID":95,"UNIT_ID":2567,"Name":"سائد محمد علي مرشود","elec_numb":4603,"Water_numb":3599,"bod_permit":4052,"crafts_lic":0,"Edu_tax":0,"Permit_cus":0,"GDPT":0,"Block_Number":24290,"Parcel_Number":169}},{"type":"Feature","id":96,"geometry":{"type":"Point","coordinates":[35.183061374737008,32.079354605175901]},"properties":{"OBJECTID":96,"UNIT_ID":2568,"Name":"ربيع ياسر فايز جرارعة","elec_numb":4580,"Water_numb":3589,"bod_permit":-1,"crafts_lic":0,"Edu_tax":0,"Permit_cus":0,"GDPT":0,"Block_Number":24290,"Parcel_Number":169}},{"type":"Feature","id":97,"geometry":{"type":"Point","coordinates":[35.183135345668113,32.079388027276273]},"properties":{"OBJECTID":97,"UNIT_ID":2569,"Name":"هاني مصطفى عبد الله حلاسي","elec_numb":4581,"Water_numb":3591,"bod_permit":-1,"crafts_lic":0,"Edu_tax":0,"Permit_cus":0,"GDPT":0,"Block_Number":24290,"Parcel_Number":169}},{"type":"Feature","id":98,"geometry":{"type":"Point","coordinates":[35.183363537587738,32.079548742593992]},"properties":{"OBJECTID":98,"UNIT_ID":10397,"Name":"اماني\u00A0عمر\u00A0احمد\u00A0سالم\u00A0/\u00A0اماني\u00A0عمر\u00A0احمد\u00A0سالم","elec_numb":4909,"Water_numb":3819,"bod_permit":3783,"crafts_lic":0,"Edu_tax":0,"Permit_cus":0,"GDPT":0,"Block_Number":24290,"Parcel_Number":168}},{"type":"Feature","id":99,"geometry":{"type":"Point","coordinates":[35.181350108391662,32.08027407010227]},"properties":{"OBJECTID":99,"UNIT_ID":2630,"Name":"جمال جبر زبيدية","elec_numb":2448,"Water_numb":2099,"bod_permit":-1,"crafts_lic":0,"Edu_tax":0,"Permit_cus":0,"GDPT":0,"Block_Number":24290,"Parcel_Number":7}},{"type":"Feature","id":100,"geometry":{"type":"Point","coordinates":[35.181348418407005,32.080301271087507]},"properties":{"OBJECTID":100,"UNIT_ID":2631,"Name":"جمال جبر زبيدية","elec_numb":3706,"Water_numb":2867,"bod_permit":-1,"crafts_lic":0,"Edu_tax":0,"Permit_cus":0,"GDPT":0,"Block_Number":24290,"Parcel_Number":7}},{"type":"Feature","id":101,"geometry":{"type":"Point","coordinates":[35.181529970964164,32.080017630284601]},"properties":{"OBJECTID":101,"UNIT_ID":10393,"Name":"جمال جبر زبيدية","elec_numb":5186,"Water_numb":3874,"bod_permit":-1,"crafts_lic":0,"Edu_tax":0,"Permit_cus":0,"GDPT":0,"Block_Number":24290,"Parcel_Number":21}},{"type":"Feature","id":102,"geometry":{"type":"Point","coordinates":[35.181351773891329,32.0803232245689]},"properties":{"OBJECTID":102,"UNIT_ID":2633,"Name":"جمال جبر زبيدية","elec_numb":3644,"Water_numb":2786,"bod_permit":-1,"crafts_lic":0,"Edu_tax":0,"Permit_cus":0,"GDPT":0,"Block_Number":24290,"Parcel_Number":7}},{"type":"Feature","id":103,"geometry":{"type":"Point","coordinates":[35.18135400597216,32.080350426505177]},"properties":{"OBJECTID":103,"UNIT_ID":2634,"Name":"جمال جبر زبيدية","elec_numb":3651,"Water_numb":2791,"bod_permit":-1,"crafts_lic":0,"Edu_tax":0,"Permit_cus":0,"GDPT":0,"Block_Number":24290,"Parcel_Number":7}},{"type":"Feature","id":104,"geometry":{"type":"Point","coordinates":[35.181440873365602,32.080368105632303]},"properties":{"OBJECTID":104,"UNIT_ID":2635,"Name":"جمال جبر زبيدية","elec_numb":3660,"Water_numb":2796,"bod_permit":3523,"crafts_lic":0,"Edu_tax":0,"Permit_cus":0,"GDPT":0,"Block_Number":24290,"Parcel_Number":7}},{"type":"Feature","id":105,"geometry":{"type":"Point","coordinates":[35.181361285223808,32.080370472637441]},"properties":{"OBJECTID":105,"UNIT_ID":2636,"Name":"جمال جبر زبيدية","elec_numb":3665,"Water_numb":2798,"bod_permit":-1,"crafts_lic":0,"Edu_tax":0,"Permit_cus":0,"GDPT":0,"Block_Number":24290,"Parcel_Number":7}},{"type":"Feature","id":106,"geometry":{"type":"Point","coordinates":[35.181385386233551,32.080370955553754]},"properties":{"OBJECTID":106,"UNIT_ID":2637,"Name":"جمال جبر زبيدية","elec_numb":3666,"Water_numb":2799,"bod_permit":-1,"crafts_lic":0,"Edu_tax":0,"Permit_cus":0,"GDPT":0,"Block_Number":24290,"Parcel_Number":7}},{"type":"Feature","id":107,"geometry":{"type":"Point","coordinates":[35.181487962053588,32.080340914714419]},"properties":{"OBJECTID":107,"UNIT_ID":2638,"Name":"جمال جبر زبيدية","elec_numb":3664,"Water_numb":2800,"bod_permit":3494,"crafts_lic":0,"Edu_tax":0,"Permit_cus":0,"GDPT":0,"Block_Number":24290,"Parcel_Number":7}},{"type":"Feature","id":108,"geometry":{"type":"Point","coordinates":[35.181487394605988,32.080362390169739]},"properties":{"OBJECTID":108,"UNIT_ID":2639,"Name":"جمال جبر زبيدية","elec_numb":3670,"Water_numb":2826,"bod_permit":3373,"crafts_lic":0,"Edu_tax":0,"Permit_cus":0,"GDPT":0,"Block_Number":24290,"Parcel_Number":7}},{"type":"Feature","id":109,"geometry":{"type":"Point","coordinates":[35.181416212960968,32.080368099666217]},"properties":{"OBJECTID":109,"UNIT_ID":2640,"Name":"جمال جبر زبيدية","elec_numb":3702,"Water_numb":2853,"bod_permit":3778,"crafts_lic":0,"Edu_tax":0,"Permit_cus":0,"GDPT":0,"Block_Number":24290,"Parcel_Number":7}},{"type":"Feature","id":110,"geometry":{"type":"Point","coordinates":[35.181466656056173,32.080366202662702]},"properties":{"OBJECTID":110,"UNIT_ID":2641,"Name":"جمال جبر زبيدية","elec_numb":3736,"Water_numb":2859,"bod_permit":3517,"crafts_lic":0,"Edu_tax":0,"Permit_cus":0,"GDPT":0,"Block_Number":24290,"Parcel_Number":7}},{"type":"Feature","id":111,"geometry":{"type":"Point","coordinates":[35.181484050215062,32.080307030618435]},"properties":{"OBJECTID":111,"UNIT_ID":2642,"Name":"جمال جبر زبيدية","elec_numb":5076,"Water_numb":4003,"bod_permit":-1,"crafts_lic":0,"Edu_tax":0,"Permit_cus":0,"GDPT":0,"Block_Number":24290,"Parcel_Number":7}},{"type":"Feature","id":112,"geometry":{"type":"Point","coordinates":[35.181480132815089,32.08028984955908]},"properties":{"OBJECTID":112,"UNIT_ID":2643,"Name":"جمال جبر زبيدية","elec_numb":3631,"Water_numb":2270,"bod_permit":-1,"crafts_lic":0,"Edu_tax":0,"Permit_cus":0,"GDPT":0,"Block_Number":24290,"Parcel_Number":7}},{"type":"Feature","id":113,"geometry":{"type":"Point","coordinates":[35.181484604787506,32.080324210865591]},"properties":{"OBJECTID":113,"UNIT_ID":2644,"Name":"جمال جبر زبيدية","elec_numb":3610,"Water_numb":2738,"bod_permit":3362,"crafts_lic":0,"Edu_tax":0,"Permit_cus":0,"GDPT":0,"Block_Number":24290,"Parcel_Number":7}},{"type":"Feature","id":114,"geometry":{"type":"Point","coordinates":[35.181479577925828,32.080273623461856]},"properties":{"OBJECTID":114,"UNIT_ID":2645,"Name":"جمال جبر زبيدية","elec_numb":2781,"Water_numb":2781,"bod_permit":-1,"crafts_lic":0,"Edu_tax":0,"Permit_cus":0,"GDPT":0,"Block_Number":24290,"Parcel_Number":7}},{"type":"Feature","id":115,"geometry":{"type":"Point","coordinates":[35.181460525688337,32.080261211299756]},"properties":{"OBJECTID":115,"UNIT_ID":2646,"Name":"جمال جبر زبيدية","elec_numb":3636,"Water_numb":2769,"bod_permit":-1,"crafts_lic":0,"Edu_tax":0,"Permit_cus":0,"GDPT":0,"Block_Number":24290,"Parcel_Number":7}},{"type":"Feature","id":116,"geometry":{"type":"Point","coordinates":[35.18142409520788,32.080260248339989]},"properties":{"OBJECTID":116,"UNIT_ID":2647,"Name":"جمال جبر زبيدية","elec_numb":2782,"Water_numb":2782,"bod_permit":-1,"crafts_lic":0,"Edu_tax":0,"Permit_cus":0,"GDPT":0,"Block_Number":24290,"Parcel_Number":7}},{"type":"Feature","id":117,"geometry":{"type":"Point","coordinates":[35.181442030512045,32.080261683903615]},"properties":{"OBJECTID":117,"UNIT_ID":2648,"Name":"جمال جبر زبيدية","elec_numb":3864,"Water_numb":2967,"bod_permit":-1,"crafts_lic":0,"Edu_tax":0,"Permit_cus":0,"GDPT":0,"Block_Number":24290,"Parcel_Number":7}},{"type":"Feature","id":118,"geometry":{"type":"Point","coordinates":[35.181479020810755,32.080264079120482]},"properties":{"OBJECTID":118,"UNIT_ID":2649,"Name":"جمال جبر زبيدية","elec_numb":3868,"Water_numb":2972,"bod_permit":-1,"crafts_lic":0,"Edu_tax":0,"Permit_cus":0,"GDPT":0,"Block_Number":24290,"Parcel_Number":7}},{"type":"Feature","id":119,"geometry":{"type":"Point","coordinates":[35.181407280756041,32.080261198420502]},"properties":{"OBJECTID":119,"UNIT_ID":2651,"Name":"جمال جبر زبيدية","elec_numb":3867,"Water_numb":2973,"bod_permit":-1,"crafts_lic":0,"Edu_tax":0,"Permit_cus":0,"GDPT":0,"Block_Number":24290,"Parcel_Number":7}},{"type":"Feature","id":120,"geometry":{"type":"Point","coordinates":[35.181377574174753,32.080265486704398]},"properties":{"OBJECTID":120,"UNIT_ID":2652,"Name":"جمال جبر زبيدية","elec_numb":3630,"Water_numb":4245,"bod_permit":-1,"crafts_lic":0,"Edu_tax":0,"Permit_cus":0,"GDPT":0,"Block_Number":24290,"Parcel_Number":7}},{"type":"Feature","id":121,"geometry":{"type":"Point","coordinates":[35.182228256605214,32.076447361269508]},"properties":{"OBJECTID":121,"UNIT_ID":2689,"Name":"بلال شحادة سعيد المصري","elec_numb":-1,"Water_numb":-1,"bod_permit":4671,"crafts_lic":0,"Edu_tax":0,"Permit_cus":0,"GDPT":0,"Block_Number":24289,"Parcel_Number":72}},{"type":"Feature","id":122,"geometry":{"type":"Point","coordinates":[35.181247494292002,32.076877714404439]},"properties":{"OBJECTID":122,"UNIT_ID":2730,"Name":"أسامة مصطفى عبدالحافظ اليونس","elec_numb":4687,"Water_numb":4077,"bod_permit":-1,"crafts_lic":0,"Edu_tax":0,"Permit_cus":0,"GDPT":0,"Block_Number":24290,"Parcel_Number":149}},{"type":"Feature","id":123,"geometry":{"type":"Point","coordinates":[35.18134443060594,32.07694287902909]},"properties":{"OBJECTID":123,"UNIT_ID":2733,"Name":"أسامة مصطفى عبدالحافظ اليونس","elec_numb":4917,"Water_numb":3865,"bod_permit":-1,"crafts_lic":0,"Edu_tax":0,"Permit_cus":0,"GDPT":0,"Block_Number":24290,"Parcel_Number":149}},{"type":"Feature","id":124,"geometry":{"type":"Point","coordinates":[35.181200937827008,32.076993431257961]},"properties":{"OBJECTID":124,"UNIT_ID":2734,"Name":"أسامة مصطفى عبدالحافظ اليونس","elec_numb":-1,"Water_numb":3984,"bod_permit":-1,"crafts_lic":0,"Edu_tax":0,"Permit_cus":0,"GDPT":0,"Block_Number":24290,"Parcel_Number":149}},{"type":"Feature","id":125,"geometry":{"type":"Point","coordinates":[35.181276478343541,32.076937136721362]},"properties":{"OBJECTID":125,"UNIT_ID":2735,"Name":"أسامة مصطفى عبدالحافظ اليونس","elec_numb":4935,"Water_numb":3856,"bod_permit":-1,"crafts_lic":0,"Edu_tax":0,"Permit_cus":0,"GDPT":0,"Block_Number":24290,"Parcel_Number":149}},{"type":"Feature","id":126,"geometry":{"type":"Point","coordinates":[35.181212590179044,32.076924354673551]},"properties":{"OBJECTID":126,"UNIT_ID":2736,"Name":"أسامة مصطفى عبدالحافظ اليونس","elec_numb":0,"Water_numb":3492,"bod_permit":-1,"crafts_lic":0,"Edu_tax":0,"Permit_cus":0,"GDPT":0,"Block_Number":24290,"Parcel_Number":149}},{"type":"Feature","id":127,"geometry":{"type":"Point","coordinates":[35.181188583637784,32.077064534112182]},"properties":{"OBJECTID":127,"UNIT_ID":2797,"Name":"أسامة مصطفى عبدالحافظ اليونس","elec_numb":4802,"Water_numb":3577,"bod_permit":-1,"crafts_lic":0,"Edu_tax":0,"Permit_cus":0,"GDPT":0,"Block_Number":24290,"Parcel_Number":149}},{"type":"Feature","id":128,"geometry":{"type":"Point","coordinates":[35.181317905049632,32.077075422872177]},"properties":{"OBJECTID":128,"UNIT_ID":2798,"Name":"جبر زبيدية","elec_numb":4668,"Water_numb":3535,"bod_permit":-1,"crafts_lic":0,"Edu_tax":0,"Permit_cus":0,"GDPT":0,"Block_Number":24290,"Parcel_Number":149}},{"type":"Feature","id":129,"geometry":{"type":"Point","coordinates":[35.181107173418141,32.077079667014942]},"properties":{"OBJECTID":129,"UNIT_ID":2799,"Name":"أسامة مصطفى عبدالحافظ اليونس","elec_numb":4528,"Water_numb":3648,"bod_permit":-1,"crafts_lic":0,"Edu_tax":0,"Permit_cus":0,"GDPT":0,"Block_Number":24290,"Parcel_Number":149}},{"type":"Feature","id":130,"geometry":{"type":"Point","coordinates":[35.181129451512945,32.077081222728218]},"properties":{"OBJECTID":130,"UNIT_ID":2800,"Name":"أسامة مصطفى عبدالحافظ اليونس","elec_numb":4592,"Water_numb":3724,"bod_permit":-1,"crafts_lic":0,"Edu_tax":0,"Permit_cus":0,"GDPT":0,"Block_Number":24290,"Parcel_Number":149}},{"type":"Feature","id":131,"geometry":{"type":"Point","coordinates":[35.181268178122934,32.077034727718726]},"properties":{"OBJECTID":131,"UNIT_ID":2801,"Name":"أسامة مصطفى عبدالحافظ اليونس","elec_numb":4582,"Water_numb":3717,"bod_permit":-1,"crafts_lic":0,"Edu_tax":0,"Permit_cus":0,"GDPT":0,"Block_Number":24290,"Parcel_Number":149}},{"type":"Feature","id":132,"geometry":{"type":"Point","coordinates":[35.181387972806718,32.077042152814087]},"properties":{"OBJECTID":132,"UNIT_ID":2802,"Name":"أسامة مصطفى عبدالحافظ اليونس","elec_numb":4428,"Water_numb":3451,"bod_permit":-1,"crafts_lic":0,"Edu_tax":0,"Permit_cus":0,"GDPT":0,"Block_Number":24290,"Parcel_Number":149}},{"type":"Feature","id":133,"geometry":{"type":"Point","coordinates":[35.181259479366354,32.077070039998112]},"properties":{"OBJECTID":133,"UNIT_ID":2803,"Name":"أسامة مصطفى عبدالحافظ اليونس","elec_numb":4485,"Water_numb":3582,"bod_permit":-1,"crafts_lic":0,"Edu_tax":0,"Permit_cus":0,"GDPT":0,"Block_Number":24290,"Parcel_Number":149}},{"type":"Feature","id":134,"geometry":{"type":"Point","coordinates":[35.181201346267393,32.077029222828109]},"properties":{"OBJECTID":134,"UNIT_ID":2805,"Name":"أسامة مصطفى عبدالحافظ اليونس","elec_numb":3917,"Water_numb":3029,"bod_permit":-1,"crafts_lic":0,"Edu_tax":0,"Permit_cus":0,"GDPT":0,"Block_Number":24290,"Parcel_Number":149}},{"type":"Feature","id":135,"geometry":{"type":"Point","coordinates":[35.181439671206697,32.077049920280636]},"properties":{"OBJECTID":135,"UNIT_ID":2806,"Name":"رباح ذيب مروح اسماعيل","elec_numb":4421,"Water_numb":3447,"bod_permit":-1,"crafts_lic":0,"Edu_tax":0,"Permit_cus":0,"GDPT":0,"Block_Number":24290,"Parcel_Number":149}},{"type":"Feature","id":136,"geometry":{"type":"Point","coordinates":[35.181335864045842,32.07700420142033]},"properties":{"OBJECTID":136,"UNIT_ID":2807,"Name":"أسامة مصطفى عبدالحافظ اليونس","elec_numb":4695,"Water_numb":3650,"bod_permit":-1,"crafts_lic":0,"Edu_tax":0,"Permit_cus":0,"GDPT":0,"Block_Number":24290,"Parcel_Number":149}},{"type":"Feature","id":137,"geometry":{"type":"Point","coordinates":[35.181333890155557,32.077038084110683]},"properties":{"OBJECTID":137,"UNIT_ID":2808,"Name":"أسامة مصطفى عبدالحافظ اليونس","elec_numb":5098,"Water_numb":4016,"bod_permit":-1,"crafts_lic":0,"Edu_tax":0,"Permit_cus":0,"GDPT":0,"Block_Number":24290,"Parcel_Number":149}},{"type":"Feature","id":138,"geometry":{"type":"Point","coordinates":[35.181268751021307,32.077000247668188]},"properties":{"OBJECTID":138,"UNIT_ID":2809,"Name":"أسامة مصطفى عبدالحافظ اليونس","elec_numb":4845,"Water_numb":3760,"bod_permit":-1,"crafts_lic":0,"Edu_tax":0,"Permit_cus":0,"GDPT":0,"Block_Number":24290,"Parcel_Number":149}},{"type":"Feature","id":139,"geometry":{"type":"Point","coordinates":[35.181450612646927,32.077012819273016]},"properties":{"OBJECTID":139,"UNIT_ID":2810,"Name":"أسامة مصطفى عبدالحافظ اليونس","elec_numb":4859,"Water_numb":3775,"bod_permit":-1,"crafts_lic":0,"Edu_tax":0,"Permit_cus":0,"GDPT":0,"Block_Number":24290,"Parcel_Number":149}},{"type":"Feature","id":140,"geometry":{"type":"Point","coordinates":[35.181423328639809,32.076901737095007]},"properties":{"OBJECTID":140,"UNIT_ID":2811,"Name":"أسامة مصطفى عبدالحافظ اليونس","elec_numb":4918,"Water_numb":3836,"bod_permit":4081,"crafts_lic":0,"Edu_tax":0,"Permit_cus":0,"GDPT":0,"Block_Number":24290,"Parcel_Number":149}},{"type":"Feature","id":141,"geometry":{"type":"Point","coordinates":[35.181397931927684,32.077009823227996]},"properties":{"OBJECTID":141,"UNIT_ID":2812,"Name":"أسامة مصطفى عبدالحافظ اليونس","elec_numb":4969,"Water_numb":3896,"bod_permit":-1,"crafts_lic":0,"Edu_tax":0,"Permit_cus":0,"GDPT":0,"Block_Number":24290,"Parcel_Number":149}},{"type":"Feature","id":142,"geometry":{"type":"Point","coordinates":[35.181494921289442,32.076913208714039]},"properties":{"OBJECTID":142,"UNIT_ID":2813,"Name":"أسامة مصطفى عبدالحافظ اليونس","elec_numb":3864,"Water_numb":-1,"bod_permit":3795,"crafts_lic":0,"Edu_tax":0,"Permit_cus":0,"GDPT":0,"Block_Number":24290,"Parcel_Number":149}},{"type":"Feature","id":143,"geometry":{"type":"Point","coordinates":[35.181346969971308,32.076890266083232]},"properties":{"OBJECTID":143,"UNIT_ID":2814,"Name":"أسامة مصطفى عبدالحافظ اليونس","elec_numb":3492,"Water_numb":-1,"bod_permit":-1,"crafts_lic":0,"Edu_tax":0,"Permit_cus":0,"GDPT":0,"Block_Number":24290,"Parcel_Number":149}},{"type":"Feature","id":144,"geometry":{"type":"Point","coordinates":[35.181484679705015,32.076954247344695]},"properties":{"OBJECTID":144,"UNIT_ID":2816,"Name":"خميس طه شتية","elec_numb":4133,"Water_numb":3833,"bod_permit":-1,"crafts_lic":0,"Edu_tax":0,"Permit_cus":0,"GDPT":0,"Block_Number":24290,"Parcel_Number":149}},{"type":"Feature","id":145,"geometry":{"type":"Point","coordinates":[35.181423170975037,32.076952086089065]},"properties":{"OBJECTID":145,"UNIT_ID":2817,"Name":"هشام خميس طه شتية","elec_numb":4846,"Water_numb":3759,"bod_permit":-1,"crafts_lic":0,"Edu_tax":0,"Permit_cus":0,"GDPT":0,"Block_Number":24290,"Parcel_Number":149}},{"type":"Feature","id":146,"geometry":{"type":"Point","coordinates":[35.184489237447565,32.077562025029195]},"properties":{"OBJECTID":146,"UNIT_ID":3648,"Name":"احمد عبدالقادر محمد حسان","elec_numb":852,"Water_numb":722,"bod_permit":1534,"crafts_lic":0,"Edu_tax":0,"Permit_cus":0,"GDPT":0,"Block_Number":24289,"Parcel_Number":53}},{"type":"Feature","id":147,"geometry":{"type":"Point","coordinates":[35.184978682768552,32.077606972135072]},"properties":{"OBJECTID":147,"UNIT_ID":3649,"Name":"ضرار حسن عبدالغني عفانة","elec_numb":905,"Water_numb":761,"bod_permit":1301,"crafts_lic":0,"Edu_tax":0,"Permit_cus":0,"GDPT":0,"Block_Number":24289,"Parcel_Number":51}},{"type":"Feature","id":148,"geometry":{"type":"Point","coordinates":[35.184546528087679,32.077815304937289]},"properties":{"OBJECTID":148,"UNIT_ID":3650,"Name":"رياض عبدالحافظ ابراهيم شتية","elec_numb":827,"Water_numb":718,"bod_permit":1090,"crafts_lic":0,"Edu_tax":0,"Permit_cus":0,"GDPT":0,"Block_Number":24289,"Parcel_Number":52}},{"type":"Feature","id":149,"geometry":{"type":"Point","coordinates":[35.184375768343514,32.07819614781387]},"properties":{"OBJECTID":149,"UNIT_ID":3651,"Name":"تحسين محمد حسين طه","elec_numb":1094,"Water_numb":973,"bod_permit":1558,"crafts_lic":0,"Edu_tax":0,"Permit_cus":0,"GDPT":0,"Block_Number":24289,"Parcel_Number":40}},{"type":"Feature","id":150,"geometry":{"type":"Point","coordinates":[35.184555404375587,32.078286371318299]},"properties":{"OBJECTID":150,"UNIT_ID":3652,"Name":"ورثة احمد جمال شحادة المصري","elec_numb":1109,"Water_numb":977,"bod_permit":1504,"crafts_lic":0,"Edu_tax":0,"Permit_cus":0,"GDPT":0,"Block_Number":24289,"Parcel_Number":39}},{"type":"Feature","id":151,"geometry":{"type":"Point","coordinates":[35.185064426796295,32.07762775088672]},"properties":{"OBJECTID":151,"UNIT_ID":3653,"Name":"سامر حسن عبدالغني عفانة","elec_numb":3016,"Water_numb":2692,"bod_permit":1108,"crafts_lic":0,"Edu_tax":0,"Permit_cus":0,"GDPT":0,"Block_Number":24289,"Parcel_Number":51}},{"type":"Feature","id":152,"geometry":{"type":"Point","coordinates":[35.184115863371844,32.078247596804005]},"properties":{"OBJECTID":152,"UNIT_ID":3654,"Name":"فتحي وسها عبدالغفار زغلول قيل","elec_numb":2887,"Water_numb":2141,"bod_permit":3064,"crafts_lic":0,"Edu_tax":0,"Permit_cus":0,"GDPT":0,"Block_Number":24289,"Parcel_Number":29}},{"type":"Feature","id":153,"geometry":{"type":"Point","coordinates":[35.183013852971804,32.077848090020538]},"properties":{"OBJECTID":153,"UNIT_ID":3655,"Name":"محمد دعيس احمد فرحة","elec_numb":1241,"Water_numb":1097,"bod_permit":1740,"crafts_lic":0,"Edu_tax":0,"Permit_cus":0,"GDPT":0,"Block_Number":24289,"Parcel_Number":45}},{"type":"Feature","id":154,"geometry":{"type":"Point","coordinates":[35.182584339236435,32.077272072522831]},"properties":{"OBJECTID":154,"UNIT_ID":3656,"Name":"عادل جبر عبدالقادر زبيدية","elec_numb":681,"Water_numb":745,"bod_permit":1890,"crafts_lic":0,"Edu_tax":0,"Permit_cus":0,"GDPT":0,"Block_Number":24289,"Parcel_Number":49}},{"type":"Feature","id":155,"geometry":{"type":"Point","coordinates":[35.184114946492137,32.078410028538343]},"properties":{"OBJECTID":155,"UNIT_ID":3657,"Name":"عبداللطيف ومراد عبدالغافر زغلول قيل","elec_numb":3378,"Water_numb":3096,"bod_permit":2816,"crafts_lic":0,"Edu_tax":0,"Permit_cus":0,"GDPT":0,"Block_Number":24289,"Parcel_Number":29}},{"type":"Feature","id":156,"geometry":{"type":"Point","coordinates":[35.184281800440047,32.078470640280308]},"properties":{"OBJECTID":156,"UNIT_ID":3658,"Name":"غسان حسن محمد ماضي","elec_numb":1944,"Water_numb":1646,"bod_permit":2492,"crafts_lic":0,"Edu_tax":0,"Permit_cus":0,"GDPT":0,"Block_Number":24289,"Parcel_Number":30}},{"type":"Feature","id":157,"geometry":{"type":"Point","coordinates":[35.182485429272148,32.077454529403575]},"properties":{"OBJECTID":157,"UNIT_ID":3659,"Name":"عادل جبر عبدالقادر زبيدية","elec_numb":2005,"Water_numb":1145,"bod_permit":-1,"crafts_lic":0,"Edu_tax":0,"Permit_cus":0,"GDPT":0,"Block_Number":24289,"Parcel_Number":48}},{"type":"Feature","id":158,"geometry":{"type":"Point","coordinates":[35.182485855183408,32.07743764789209]},"properties":{"OBJECTID":158,"UNIT_ID":3660,"Name":"عادل جبر عبدالقادر زبيدية","elec_numb":4364,"Water_numb":3400,"bod_permit":-1,"crafts_lic":0,"Edu_tax":0,"Permit_cus":0,"GDPT":0,"Block_Number":24289,"Parcel_Number":48}},{"type":"Feature","id":159,"geometry":{"type":"Point","coordinates":[35.182569448476229,32.077392449851466]},"properties":{"OBJECTID":159,"UNIT_ID":3661,"Name":"عادل جبر عبدالقادر زبيدية","elec_numb":-1,"Water_numb":-1,"bod_permit":4079,"crafts_lic":0,"Edu_tax":0,"Permit_cus":0,"GDPT":0,"Block_Number":24289,"Parcel_Number":48}},{"type":"Feature","id":160,"geometry":{"type":"Point","coordinates":[35.182500996467923,32.076588896564189]},"properties":{"OBJECTID":160,"UNIT_ID":3662,"Name":"جهاد عطى فتاح عبيد","elec_numb":2607,"Water_numb":2143,"bod_permit":4742,"crafts_lic":0,"Edu_tax":0,"Permit_cus":0,"GDPT":0,"Block_Number":24289,"Parcel_Number":73}},{"type":"Feature","id":161,"geometry":{"type":"Point","coordinates":[35.182866200307352,32.076497068083718]},"properties":{"OBJECTID":161,"UNIT_ID":3663,"Name":"عبد الجبار اسماعيل علوش","elec_numb":-1,"Water_numb":1610,"bod_permit":0,"crafts_lic":0,"Edu_tax":0,"Permit_cus":0,"GDPT":0,"Block_Number":24289,"Parcel_Number":92}},{"type":"Feature","id":162,"geometry":{"type":"Point","coordinates":[35.18344078704429,32.077848985374722]},"properties":{"OBJECTID":162,"UNIT_ID":3664,"Name":"احمد دعيس احمد فرحة","elec_numb":2091,"Water_numb":1762,"bod_permit":1793,"crafts_lic":0,"Edu_tax":0,"Permit_cus":0,"GDPT":0,"Block_Number":24289,"Parcel_Number":44}},{"type":"Feature","id":163,"geometry":{"type":"Point","coordinates":[35.18274497919888,32.076792691512857]},"properties":{"OBJECTID":163,"UNIT_ID":3665,"Name":"جميل أمين عبد الكريم فتاش","elec_numb":1639,"Water_numb":1758,"bod_permit":1649,"crafts_lic":0,"Edu_tax":0,"Permit_cus":0,"GDPT":0,"Block_Number":24289,"Parcel_Number":74}},{"type":"Feature","id":164,"geometry":{"type":"Point","coordinates":[35.182780203530818,32.076722383809155]},"properties":{"OBJECTID":164,"UNIT_ID":3666,"Name":"عبد الكريم أمين عبد الكريم الفتاش","elec_numb":1683,"Water_numb":1431,"bod_permit":3416,"crafts_lic":0,"Edu_tax":0,"Permit_cus":0,"GDPT":0,"Block_Number":24289,"Parcel_Number":135}},{"type":"Feature","id":165,"geometry":{"type":"Point","coordinates":[35.182755899471289,32.076398765079908]},"properties":{"OBJECTID":165,"UNIT_ID":3667,"Name":"محمد محمود محمد  دواكة","elec_numb":1634,"Water_numb":1362,"bod_permit":2198,"crafts_lic":0,"Edu_tax":0,"Permit_cus":0,"GDPT":0,"Block_Number":24289,"Parcel_Number":93}},{"type":"Feature","id":166,"geometry":{"type":"Point","coordinates":[35.182603303396036,32.076920467022184]},"properties":{"OBJECTID":166,"UNIT_ID":3668,"Name":"وضاح أمين عبد الكريم الفتاش","elec_numb":1412,"Water_numb":966,"bod_permit":1456,"crafts_lic":0,"Edu_tax":0,"Permit_cus":0,"GDPT":0,"Block_Number":24289,"Parcel_Number":60}},{"type":"Feature","id":167,"geometry":{"type":"Point","coordinates":[35.18337102424578,32.076679768958293]},"properties":{"OBJECTID":167,"UNIT_ID":3669,"Name":"أسمها عبد العزيز شتيه","elec_numb":1003,"Water_numb":893,"bod_permit":2577,"crafts_lic":0,"Edu_tax":0,"Permit_cus":0,"GDPT":0,"Block_Number":24289,"Parcel_Number":76}},{"type":"Feature","id":168,"geometry":{"type":"Point","coordinates":[35.183335674000141,32.076808730911047]},"properties":{"OBJECTID":168,"UNIT_ID":3670,"Name":"سمير محمود عبد الجبار شتيه","elec_numb":-1,"Water_numb":-1,"bod_permit":3808,"crafts_lic":0,"Edu_tax":0,"Permit_cus":0,"GDPT":0,"Block_Number":24289,"Parcel_Number":76}},{"type":"Feature","id":169,"geometry":{"type":"Point","coordinates":[35.182814027814054,32.076987369544703]},"properties":{"OBJECTID":169,"UNIT_ID":3671,"Name":"منصور عبد الرحيم عبدالله مرايطة","elec_numb":884,"Water_numb":786,"bod_permit":4901,"crafts_lic":0,"Edu_tax":0,"Permit_cus":0,"GDPT":0,"Block_Number":24289,"Parcel_Number":75}},{"type":"Feature","id":170,"geometry":{"type":"Point","coordinates":[35.18312530470763,32.076606489644099]},"properties":{"OBJECTID":170,"UNIT_ID":3672,"Name":"عبد الرحيم منصور عبد الرحيم مرايطة","elec_numb":1710,"Water_numb":1444,"bod_permit":4546,"crafts_lic":0,"Edu_tax":0,"Permit_cus":0,"GDPT":0,"Block_Number":24289,"Parcel_Number":91}},{"type":"Feature","id":171,"geometry":{"type":"Point","coordinates":[35.183410881930925,32.077209389308997]},"properties":{"OBJECTID":171,"UNIT_ID":3673,"Name":"محمود حسن شتيه","elec_numb":898,"Water_numb":787,"bod_permit":-1,"crafts_lic":0,"Edu_tax":0,"Permit_cus":0,"GDPT":0,"Block_Number":24289,"Parcel_Number":56}},{"type":"Feature","id":172,"geometry":{"type":"Point","coordinates":[35.18341369257702,32.077186483115632]},"properties":{"OBJECTID":172,"UNIT_ID":3674,"Name":"محمود حسن شتيه","elec_numb":-1,"Water_numb":-1,"bod_permit":4241,"crafts_lic":0,"Edu_tax":0,"Permit_cus":0,"GDPT":0,"Block_Number":24289,"Parcel_Number":56}},{"type":"Feature","id":173,"geometry":{"type":"Point","coordinates":[35.183390030585763,32.076830814954306]},"properties":{"OBJECTID":173,"UNIT_ID":3675,"Name":"عبد الجبار محمود عبد الجبار شتيه","elec_numb":2053,"Water_numb":1743,"bod_permit":-1,"crafts_lic":0,"Edu_tax":0,"Permit_cus":0,"GDPT":0,"Block_Number":24289,"Parcel_Number":76}},{"type":"Feature","id":174,"geometry":{"type":"Point","coordinates":[35.183474833316055,32.076721429661127]},"properties":{"OBJECTID":174,"UNIT_ID":3676,"Name":"سمؤال محمود عبد الجبار شتيه","elec_numb":2645,"Water_numb":-1,"bod_permit":1381,"crafts_lic":0,"Edu_tax":0,"Permit_cus":0,"GDPT":0,"Block_Number":24289,"Parcel_Number":76}},{"type":"Feature","id":175,"geometry":{"type":"Point","coordinates":[35.183595813033122,32.078419314610528]},"properties":{"OBJECTID":175,"UNIT_ID":3694,"Name":"طالب رجا مصطفى ازنيط","elec_numb":1192,"Water_numb":946,"bod_permit":1500,"crafts_lic":0,"Edu_tax":0,"Permit_cus":0,"GDPT":0,"Block_Number":24289,"Parcel_Number":24}},{"type":"Feature","id":176,"geometry":{"type":"Point","coordinates":[35.183387953526761,32.078058789130026]},"properties":{"OBJECTID":176,"UNIT_ID":3697,"Name":"محمود عبدالكريم عفيف شلوف","elec_numb":410,"Water_numb":609,"bod_permit":4246,"crafts_lic":0,"Edu_tax":0,"Permit_cus":0,"GDPT":0,"Block_Number":24289,"Parcel_Number":27}},{"type":"Feature","id":177,"geometry":{"type":"Point","coordinates":[35.183499752069721,32.078100691503167]},"properties":{"OBJECTID":177,"UNIT_ID":3698,"Name":"محمود عبدالكريم عفيف شلوف","elec_numb":1540,"Water_numb":1183,"bod_permit":1919,"crafts_lic":0,"Edu_tax":0,"Permit_cus":0,"GDPT":0,"Block_Number":24289,"Parcel_Number":27}},{"type":"Feature","id":178,"geometry":{"type":"Point","coordinates":[35.183944138043323,32.078708744411308]},"properties":{"OBJECTID":178,"UNIT_ID":3699,"Name":"المنتصر محمود عبدالكريم ماضي","elec_numb":2084,"Water_numb":1363,"bod_permit":2314,"crafts_lic":0,"Edu_tax":0,"Permit_cus":0,"GDPT":0,"Block_Number":24289,"Parcel_Number":23}},{"type":"Feature","id":179,"geometry":{"type":"Point","coordinates":[35.183945773339225,32.078338771602247]},"properties":{"OBJECTID":179,"UNIT_ID":3700,"Name":"فتحي احمد ذيب علقم","elec_numb":2139,"Water_numb":1796,"bod_permit":4541,"crafts_lic":0,"Edu_tax":0,"Permit_cus":0,"GDPT":0,"Block_Number":24289,"Parcel_Number":145}},{"type":"Feature","id":180,"geometry":{"type":"Point","coordinates":[35.183643614720815,32.077958499537367]},"properties":{"OBJECTID":180,"UNIT_ID":3701,"Name":"ثائر يوسف حسن قدرة","elec_numb":684,"Water_numb":619,"bod_permit":0,"crafts_lic":0,"Edu_tax":0,"Permit_cus":0,"GDPT":0,"Block_Number":24289,"Parcel_Number":43}},{"type":"Feature","id":181,"geometry":{"type":"Point","coordinates":[35.183609915184782,32.077828922299645]},"properties":{"OBJECTID":181,"UNIT_ID":10339,"Name":"محمود لطفي حسن قدرة","elec_numb":-1,"Water_numb":-1,"bod_permit":2476,"crafts_lic":0,"Edu_tax":0,"Permit_cus":0,"GDPT":0,"Block_Number":24289,"Parcel_Number":50}},{"type":"Feature","id":182,"geometry":{"type":"Point","coordinates":[35.183914918689545,32.078017188987559]},"properties":{"OBJECTID":182,"UNIT_ID":3703,"Name":"سامر سالم دحدول","elec_numb":680,"Water_numb":610,"bod_permit":3796,"crafts_lic":0,"Edu_tax":0,"Permit_cus":0,"GDPT":0,"Block_Number":24289,"Parcel_Number":1}},{"type":"Feature","id":183,"geometry":{"type":"Point","coordinates":[35.184027296831118,32.077996454382145]},"properties":{"OBJECTID":183,"UNIT_ID":3704,"Name":"سائد سالم دحدول","elec_numb":-1,"Water_numb":-1,"bod_permit":2267,"crafts_lic":0,"Edu_tax":0,"Permit_cus":0,"GDPT":0,"Block_Number":24289,"Parcel_Number":1}},{"type":"Feature","id":184,"geometry":{"type":"Point","coordinates":[35.184062869114186,32.077519784704968]},"properties":{"OBJECTID":184,"UNIT_ID":3705,"Name":"محمد عبدالعزيز عبدالغني المصري","elec_numb":3536,"Water_numb":2706,"bod_permit":2117,"crafts_lic":0,"Edu_tax":0,"Permit_cus":0,"GDPT":0,"Block_Number":24289,"Parcel_Number":54}},{"type":"Feature","id":185,"geometry":{"type":"Point","coordinates":[35.184146493944638,32.077594966424023]},"properties":{"OBJECTID":185,"UNIT_ID":3706,"Name":"محمد عبدالعزيز عبدالغني المصري","elec_numb":984,"Water_numb":879,"bod_permit":1289,"crafts_lic":0,"Edu_tax":0,"Permit_cus":0,"GDPT":0,"Block_Number":24289,"Parcel_Number":54}},{"type":"Feature","id":186,"geometry":{"type":"Point","coordinates":[35.183701974174141,32.077817131506734]},"properties":{"OBJECTID":186,"UNIT_ID":3707,"Name":"لطفي حسن قدرة","elec_numb":782,"Water_numb":701,"bod_permit":1026,"crafts_lic":0,"Edu_tax":0,"Permit_cus":0,"GDPT":0,"Block_Number":24289,"Parcel_Number":50}},{"type":"Feature","id":187,"geometry":{"type":"Point","coordinates":[35.183683139458637,32.077783542631622]},"properties":{"OBJECTID":187,"UNIT_ID":3708,"Name":"علاء لطفي حسن قدرة","elec_numb":779,"Water_numb":696,"bod_permit":1432,"crafts_lic":0,"Edu_tax":0,"Permit_cus":0,"GDPT":0,"Block_Number":24289,"Parcel_Number":50}},{"type":"Feature","id":188,"geometry":{"type":"Point","coordinates":[35.181423822802728,32.079718170130121]},"properties":{"OBJECTID":188,"UNIT_ID":3709,"Name":"وسام بسام محمد مرايطة","elec_numb":2388,"Water_numb":1788,"bod_permit":2786,"crafts_lic":0,"Edu_tax":0,"Permit_cus":0,"GDPT":0,"Block_Number":24290,"Parcel_Number":35}},{"type":"Feature","id":189,"geometry":{"type":"Point","coordinates":[35.181748087753867,32.079415686955322]},"properties":{"OBJECTID":189,"UNIT_ID":3710,"Name":"احمد صلاح ناصيف شتيه","elec_numb":5179,"Water_numb":4080,"bod_permit":-1,"crafts_lic":0,"Edu_tax":0,"Permit_cus":0,"GDPT":0,"Block_Number":24290,"Parcel_Number":33}},{"type":"Feature","id":190,"geometry":{"type":"Point","coordinates":[35.182430552383117,32.076300661649888]},"properties":{"OBJECTID":190,"UNIT_ID":3711,"Name":"معزوزة مطر أحمد شاهين","elec_numb":-1,"Water_numb":-1,"bod_permit":1975,"crafts_lic":0,"Edu_tax":0,"Permit_cus":0,"GDPT":0,"Block_Number":24289,"Parcel_Number":95}},{"type":"Feature","id":191,"geometry":{"type":"Point","coordinates":[35.182557382137261,32.076215028729479]},"properties":{"OBJECTID":191,"UNIT_ID":3712,"Name":"معزوزة مطر أحمد شاهين","elec_numb":1522,"Water_numb":1254,"bod_permit":4965,"crafts_lic":0,"Edu_tax":0,"Permit_cus":0,"GDPT":0,"Block_Number":24289,"Parcel_Number":95}},{"type":"Feature","id":192,"geometry":{"type":"Point","coordinates":[35.181621101543833,32.079535917299644]},"properties":{"OBJECTID":192,"UNIT_ID":3713,"Name":"ليلى خالد إبراهيم خضر","elec_numb":5186,"Water_numb":4084,"bod_permit":-1,"crafts_lic":0,"Edu_tax":0,"Permit_cus":0,"GDPT":0,"Block_Number":24290,"Parcel_Number":33}},{"type":"Feature","id":193,"geometry":{"type":"Point","coordinates":[35.181620690160443,32.079508476813743]},"properties":{"OBJECTID":193,"UNIT_ID":3714,"Name":"علان عبد الجابر عبد الرحيم عبيد","elec_numb":5165,"Water_numb":4068,"bod_permit":-1,"crafts_lic":0,"Edu_tax":0,"Permit_cus":0,"GDPT":0,"Block_Number":24290,"Parcel_Number":33}},{"type":"Feature","id":194,"geometry":{"type":"Point","coordinates":[35.181699726491885,32.079478192050466]},"properties":{"OBJECTID":194,"UNIT_ID":3715,"Name":"إيهاب محمد حسان","elec_numb":5170,"Water_numb":4072,"bod_permit":-1,"crafts_lic":0,"Edu_tax":0,"Permit_cus":0,"GDPT":0,"Block_Number":24290,"Parcel_Number":33}},{"type":"Feature","id":195,"geometry":{"type":"Point","coordinates":[35.181638919556477,32.079468991279022]},"properties":{"OBJECTID":195,"UNIT_ID":3716,"Name":" قتيبه\u00A0فالح\u00A0جميل\u00A0فاتوني","elec_numb":5169,"Water_numb":4071,"bod_permit":-1,"crafts_lic":0,"Edu_tax":0,"Permit_cus":0,"GDPT":0,"Block_Number":24290,"Parcel_Number":33}},{"type":"Feature","id":196,"geometry":{"type":"Point","coordinates":[35.181714272740678,32.079558607496359]},"properties":{"OBJECTID":196,"UNIT_ID":3717,"Name":"فادي محمد موسى زبيدية","elec_numb":4699,"Water_numb":3651,"bod_permit":-1,"crafts_lic":0,"Edu_tax":0,"Permit_cus":0,"GDPT":0,"Block_Number":24290,"Parcel_Number":33}},{"type":"Feature","id":197,"geometry":{"type":"Point","coordinates":[35.18174159977292,32.079542866054773]},"properties":{"OBJECTID":197,"UNIT_ID":3718,"Name":"عبود الحسن","elec_numb":5158,"Water_numb":4062,"bod_permit":-1,"crafts_lic":0,"Edu_tax":0,"Permit_cus":0,"GDPT":0,"Block_Number":24290,"Parcel_Number":33}},{"type":"Feature","id":198,"geometry":{"type":"Point","coordinates":[35.181672524469057,32.079538673960855]},"properties":{"OBJECTID":198,"UNIT_ID":3719,"Name":"يزن الخطيب","elec_numb":5207,"Water_numb":4099,"bod_permit":-1,"crafts_lic":0,"Edu_tax":0,"Permit_cus":0,"GDPT":0,"Block_Number":24290,"Parcel_Number":33}},{"type":"Feature","id":199,"geometry":{"type":"Point","coordinates":[35.181633283142034,32.079563719548119]},"properties":{"OBJECTID":199,"UNIT_ID":3720,"Name":"حسن مصطفى حلاسة","elec_numb":5172,"Water_numb":4074,"bod_permit":-1,"crafts_lic":0,"Edu_tax":0,"Permit_cus":0,"GDPT":0,"Block_Number":24290,"Parcel_Number":33}},{"type":"Feature","id":200,"geometry":{"type":"Point","coordinates":[35.181776117740483,32.079397558494833]},"properties":{"OBJECTID":200,"UNIT_ID":3721,"Name":"سائد الفتاش","elec_numb":4646,"Water_numb":3785,"bod_permit":-1,"crafts_lic":0,"Edu_tax":0,"Permit_cus":0,"GDPT":0,"Block_Number":24290,"Parcel_Number":33}},{"type":"Feature","id":201,"geometry":{"type":"Point","coordinates":[35.181785901882613,32.079469026508569]},"properties":{"OBJECTID":201,"UNIT_ID":3722,"Name":"عبدالله الكبنجي","elec_numb":5187,"Water_numb":3798,"bod_permit":-1,"crafts_lic":0,"Edu_tax":0,"Permit_cus":0,"GDPT":0,"Block_Number":24290,"Parcel_Number":33}},{"type":"Feature","id":202,"geometry":{"type":"Point","coordinates":[35.181742459414707,32.079486315272661]},"properties":{"OBJECTID":202,"UNIT_ID":3723,"Name":"هديل عبيد","elec_numb":5166,"Water_numb":4069,"bod_permit":-1,"crafts_lic":0,"Edu_tax":0,"Permit_cus":0,"GDPT":0,"Block_Number":24290,"Parcel_Number":33}},{"type":"Feature","id":203,"geometry":{"type":"Point","coordinates":[35.181718510774687,32.079454931700681]},"properties":{"OBJECTID":203,"UNIT_ID":3724,"Name":"مهند صلاح جميل حماد","elec_numb":5168,"Water_numb":4073,"bod_permit":-1,"crafts_lic":0,"Edu_tax":0,"Permit_cus":0,"GDPT":0,"Block_Number":24290,"Parcel_Number":33}},{"type":"Feature","id":204,"geometry":{"type":"Point","coordinates":[35.181823191332086,32.079411171346649]},"properties":{"OBJECTID":204,"UNIT_ID":3725,"Name":"مؤيد الرمال","elec_numb":5208,"Water_numb":4100,"bod_permit":-1,"crafts_lic":0,"Edu_tax":0,"Permit_cus":0,"GDPT":0,"Block_Number":24290,"Parcel_Number":33}},{"type":"Feature","id":205,"geometry":{"type":"Point","coordinates":[35.181788013581745,32.079437648276269]},"properties":{"OBJECTID":205,"UNIT_ID":3726,"Name":"عبد الله محمود عبد الحافظ عثمان","elec_numb":5187,"Water_numb":4086,"bod_permit":4305,"crafts_lic":0,"Edu_tax":0,"Permit_cus":0,"GDPT":0,"Block_Number":24290,"Parcel_Number":33}},{"type":"Feature","id":206,"geometry":{"type":"Point","coordinates":[35.181757601515919,32.079459117498757]},"properties":{"OBJECTID":206,"UNIT_ID":3727,"Name":"محمد حمدان صالح زبل","elec_numb":4620,"Water_numb":3816,"bod_permit":-1,"crafts_lic":0,"Edu_tax":0,"Permit_cus":0,"GDPT":0,"Block_Number":24290,"Parcel_Number":33}},{"type":"Feature","id":207,"geometry":{"type":"Point","coordinates":[35.181773840294767,32.079504338005336]},"properties":{"OBJECTID":207,"UNIT_ID":3728,"Name":"يزن زبن","elec_numb":5167,"Water_numb":4070,"bod_permit":-1,"crafts_lic":0,"Edu_tax":0,"Permit_cus":0,"GDPT":0,"Block_Number":24290,"Parcel_Number":33}},{"type":"Feature","id":208,"geometry":{"type":"Point","coordinates":[35.182188843595007,32.079149615343191]},"properties":{"OBJECTID":208,"UNIT_ID":3729,"Name":"سميحة محمود صالح نجم","elec_numb":3280,"Water_numb":2386,"bod_permit":4057,"crafts_lic":0,"Edu_tax":0,"Permit_cus":0,"GDPT":0,"Block_Number":24290,"Parcel_Number":50}},{"type":"Feature","id":209,"geometry":{"type":"Point","coordinates":[35.182173858929957,32.079126466898344]},"properties":{"OBJECTID":209,"UNIT_ID":3730,"Name":"سميحة صالح نجم","elec_numb":5231,"Water_numb":-1,"bod_permit":3881,"crafts_lic":0,"Edu_tax":0,"Permit_cus":0,"GDPT":0,"Block_Number":24290,"Parcel_Number":50}},{"type":"Feature","id":210,"geometry":{"type":"Point","coordinates":[35.18182681991177,32.079453167450289]},"properties":{"OBJECTID":210,"UNIT_ID":3731,"Name":"بلال جمال زبيدية","elec_numb":5355,"Water_numb":3829,"bod_permit":-1,"crafts_lic":0,"Edu_tax":0,"Permit_cus":0,"GDPT":0,"Block_Number":24290,"Parcel_Number":33}},{"type":"Feature","id":211,"geometry":{"type":"Point","coordinates":[35.181674748806735,32.079589498777054]},"properties":{"OBJECTID":211,"UNIT_ID":20024,"Name":"بلال جمال زبيدية","elec_numb":4623,"Water_numb":3679,"bod_permit":-1,"crafts_lic":0,"Edu_tax":0,"Permit_cus":0,"GDPT":0,"Block_Number":24290,"Parcel_Number":33}},{"type":"Feature","id":212,"geometry":{"type":"Point","coordinates":[35.181254545117703,32.079562928136887]},"properties":{"OBJECTID":212,"UNIT_ID":3733,"Name":"محمد جهاد دحنوس","elec_numb":994,"Water_numb":-1,"bod_permit":-1,"crafts_lic":0,"Edu_tax":0,"Permit_cus":0,"GDPT":0,"Block_Number":24290,"Parcel_Number":47}},{"type":"Feature","id":213,"geometry":{"type":"Point","coordinates":[35.18129365447728,32.079511636288515]},"properties":{"OBJECTID":213,"UNIT_ID":3734,"Name":"ياسين جهاد الدحنوس","elec_numb":3435,"Water_numb":-1,"bod_permit":3462,"crafts_lic":0,"Edu_tax":0,"Permit_cus":0,"GDPT":0,"Block_Number":24290,"Parcel_Number":47}},{"type":"Feature","id":214,"geometry":{"type":"Point","coordinates":[35.182098250001673,32.07901210430456]},"properties":{"OBJECTID":214,"UNIT_ID":3735,"Name":"محمد حسين","elec_numb":3042,"Water_numb":2312,"bod_permit":4793,"crafts_lic":0,"Edu_tax":0,"Permit_cus":0,"GDPT":0,"Block_Number":24290,"Parcel_Number":166}},{"type":"Feature","id":215,"geometry":{"type":"Point","coordinates":[35.181280605062142,32.079564247558459]},"properties":{"OBJECTID":215,"UNIT_ID":3736,"Name":"جهاد ياسين دحنوس","elec_numb":1457,"Water_numb":1185,"bod_permit":-1,"crafts_lic":0,"Edu_tax":0,"Permit_cus":0,"GDPT":0,"Block_Number":24290,"Parcel_Number":47}},{"type":"Feature","id":216,"geometry":{"type":"Point","coordinates":[35.181468172526976,32.079270462534247]},"properties":{"OBJECTID":216,"UNIT_ID":3737,"Name":"معتصم رشيد قبلاوي","elec_numb":2038,"Water_numb":1699,"bod_permit":-1,"crafts_lic":0,"Edu_tax":0,"Permit_cus":0,"GDPT":0,"Block_Number":24290,"Parcel_Number":48}},{"type":"Feature","id":217,"geometry":{"type":"Point","coordinates":[35.181519902260916,32.079191018111977]},"properties":{"OBJECTID":217,"UNIT_ID":3738,"Name":"عماد رشيد سبع قبلاوي","elec_numb":2709,"Water_numb":2733,"bod_permit":3434,"crafts_lic":0,"Edu_tax":0,"Permit_cus":0,"GDPT":0,"Block_Number":24290,"Parcel_Number":48}},{"type":"Feature","id":218,"geometry":{"type":"Point","coordinates":[35.181314689239436,32.079457714774023]},"properties":{"OBJECTID":218,"UNIT_ID":3739,"Name":"عماد جهاد الدحنوس","elec_numb":3434,"Water_numb":3823,"bod_permit":1827,"crafts_lic":0,"Edu_tax":0,"Permit_cus":0,"GDPT":0,"Block_Number":24290,"Parcel_Number":47}},{"type":"Feature","id":219,"geometry":{"type":"Point","coordinates":[35.18144612547934,32.079209671158658]},"properties":{"OBJECTID":219,"UNIT_ID":3740,"Name":"عصام رشيد سبع قبلاوي","elec_numb":5124,"Water_numb":-1,"bod_permit":-1,"crafts_lic":0,"Edu_tax":0,"Permit_cus":0,"GDPT":0,"Block_Number":24290,"Parcel_Number":48}},{"type":"Feature","id":220,"geometry":{"type":"Point","coordinates":[35.18380965612684,32.077134987526769]},"properties":{"OBJECTID":220,"UNIT_ID":3741,"Name":"خليل محمد عبد الجبار شتيه","elec_numb":542,"Water_numb":173,"bod_permit":2794,"crafts_lic":0,"Edu_tax":0,"Permit_cus":0,"GDPT":0,"Block_Number":24289,"Parcel_Number":142}},{"type":"Feature","id":221,"geometry":{"type":"Point","coordinates":[35.184226088333972,32.07690711802055]},"properties":{"OBJECTID":221,"UNIT_ID":3742,"Name":"عاهد محمد أحمد مرايطة","elec_numb":1148,"Water_numb":994,"bod_permit":1476,"crafts_lic":0,"Edu_tax":0,"Permit_cus":0,"GDPT":0,"Block_Number":24289,"Parcel_Number":78}},{"type":"Feature","id":222,"geometry":{"type":"Point","coordinates":[35.183505062166347,32.077134963388765]},"properties":{"OBJECTID":222,"UNIT_ID":3743,"Name":"محمود حسن شتيه","elec_numb":-1,"Water_numb":-1,"bod_permit":1168,"crafts_lic":0,"Edu_tax":0,"Permit_cus":0,"GDPT":0,"Block_Number":24289,"Parcel_Number":56}},{"type":"Feature","id":223,"geometry":{"type":"Point","coordinates":[35.183592422255209,32.07734844134022]},"properties":{"OBJECTID":223,"UNIT_ID":3744,"Name":"علاء محمد عبد الجبارشتيه","elec_numb":2838,"Water_numb":2180,"bod_permit":0,"crafts_lic":0,"Edu_tax":0,"Permit_cus":0,"GDPT":0,"Block_Number":24289,"Parcel_Number":141}},{"type":"Feature","id":224,"geometry":{"type":"Point","coordinates":[35.184780260491465,32.076819451363967]},"properties":{"OBJECTID":224,"UNIT_ID":3745,"Name":"شاهر محمد عزام مرايطة","elec_numb":2687,"Water_numb":1028,"bod_permit":-1,"crafts_lic":0,"Edu_tax":0,"Permit_cus":0,"GDPT":0,"Block_Number":24289,"Parcel_Number":81}},{"type":"Feature","id":225,"geometry":{"type":"Point","coordinates":[35.184571502636935,32.077138855487256]},"properties":{"OBJECTID":225,"UNIT_ID":3746,"Name":"فؤاد محمد أحمد مرايطة","elec_numb":1225,"Water_numb":-1,"bod_permit":2005,"crafts_lic":0,"Edu_tax":0,"Permit_cus":0,"GDPT":0,"Block_Number":24289,"Parcel_Number":81}},{"type":"Feature","id":226,"geometry":{"type":"Point","coordinates":[35.184459210252101,32.076740879893002]},"properties":{"OBJECTID":226,"UNIT_ID":3747,"Name":"محمد عزام أحمد محمد مرايطة","elec_numb":1076,"Water_numb":916,"bod_permit":1416,"crafts_lic":0,"Edu_tax":0,"Permit_cus":0,"GDPT":0,"Block_Number":24289,"Parcel_Number":86}},{"type":"Feature","id":227,"geometry":{"type":"Point","coordinates":[35.184680772784276,32.076845915235708]},"properties":{"OBJECTID":227,"UNIT_ID":3748,"Name":"محمد عزام أحمد مرايطة","elec_numb":3343,"Water_numb":-1,"bod_permit":-1,"crafts_lic":0,"Edu_tax":0,"Permit_cus":0,"GDPT":0,"Block_Number":24289,"Parcel_Number":81}},{"type":"Feature","id":228,"geometry":{"type":"Point","coordinates":[35.184363618986417,32.077132584755873]},"properties":{"OBJECTID":228,"UNIT_ID":3749,"Name":"خالد أحمد محمد مرايطة","elec_numb":3927,"Water_numb":3215,"bod_permit":1575,"crafts_lic":0,"Edu_tax":0,"Permit_cus":0,"GDPT":0,"Block_Number":24289,"Parcel_Number":79}},{"type":"Feature","id":229,"geometry":{"type":"Point","coordinates":[35.184428347797329,32.077144769279428]},"properties":{"OBJECTID":229,"UNIT_ID":3750,"Name":"خالد أحمد محمد مرايطة","elec_numb":-1,"Water_numb":-1,"bod_permit":1188,"crafts_lic":0,"Edu_tax":0,"Permit_cus":0,"GDPT":0,"Block_Number":24289,"Parcel_Number":79}},{"type":"Feature","id":230,"geometry":{"type":"Point","coordinates":[35.184600376191327,32.077100683102039]},"properties":{"OBJECTID":230,"UNIT_ID":3751,"Name":"أحمد فؤاد أحمد مرايطة","elec_numb":-1,"Water_numb":-1,"bod_permit":3384,"crafts_lic":0,"Edu_tax":0,"Permit_cus":0,"GDPT":0,"Block_Number":24289,"Parcel_Number":81}},{"type":"Feature","id":231,"geometry":{"type":"Point","coordinates":[35.184614658703865,32.077131706014399]},"properties":{"OBJECTID":231,"UNIT_ID":3752,"Name":"رباح فؤاد أحمد مرايطة","elec_numb":2637,"Water_numb":2127,"bod_permit":3122,"crafts_lic":0,"Edu_tax":0,"Permit_cus":0,"GDPT":0,"Block_Number":24289,"Parcel_Number":81}},{"type":"Feature","id":232,"geometry":{"type":"Point","coordinates":[35.184693127200468,32.077145026095963]},"properties":{"OBJECTID":232,"UNIT_ID":3753,"Name":"حسن جميل موسى أبو زاهر","elec_numb":1450,"Water_numb":971,"bod_permit":1589,"crafts_lic":0,"Edu_tax":0,"Permit_cus":0,"GDPT":0,"Block_Number":24289,"Parcel_Number":82}},{"type":"Feature","id":233,"geometry":{"type":"Point","coordinates":[35.18484129414616,32.077273644710864]},"properties":{"OBJECTID":233,"UNIT_ID":3754,"Name":"محمود محمد محمود دواكة","elec_numb":1054,"Water_numb":930,"bod_permit":0,"crafts_lic":0,"Edu_tax":0,"Permit_cus":0,"GDPT":0,"Block_Number":24289,"Parcel_Number":83}},{"type":"Feature","id":234,"geometry":{"type":"Point","coordinates":[35.184410973314812,32.076946463584797]},"properties":{"OBJECTID":234,"UNIT_ID":3755,"Name":"عبد اللطيف أحمد محمد مرايطة","elec_numb":1028,"Water_numb":908,"bod_permit":1422,"crafts_lic":0,"Edu_tax":0,"Permit_cus":0,"GDPT":0,"Block_Number":24289,"Parcel_Number":85}},{"type":"Feature","id":235,"geometry":{"type":"Point","coordinates":[35.184750434006908,32.077142055171052]},"properties":{"OBJECTID":235,"UNIT_ID":3756,"Name":"حسن جميل موسى أبو زاهر","elec_numb":1092,"Water_numb":890,"bod_permit":1561,"crafts_lic":0,"Edu_tax":0,"Permit_cus":0,"GDPT":0,"Block_Number":24289,"Parcel_Number":82}},{"type":"Feature","id":236,"geometry":{"type":"Point","coordinates":[35.185027118685184,32.077017483358233]},"properties":{"OBJECTID":236,"UNIT_ID":3757,"Name":"محمود محمد دواهقة","elec_numb":1116,"Water_numb":964,"bod_permit":-1,"crafts_lic":0,"Edu_tax":0,"Permit_cus":0,"GDPT":0,"Block_Number":24289,"Parcel_Number":84}},{"type":"Feature","id":237,"geometry":{"type":"Point","coordinates":[35.185004154772891,32.07696736931107]},"properties":{"OBJECTID":237,"UNIT_ID":3758,"Name":"عبد\u00A0المهدي\u00A0محمد\u00A0محمود\u00A0دواقه\u00A0/\u00A0عبد\u00A0المهدي\u00A0محمد\u00A0محمود\u00A0دواقه","elec_numb":2659,"Water_numb":1016,"bod_permit":2306,"crafts_lic":0,"Edu_tax":0,"Permit_cus":0,"GDPT":0,"Block_Number":24289,"Parcel_Number":84}},{"type":"Feature","id":238,"geometry":{"type":"Point","coordinates":[35.184872813129211,32.077293336926488]},"properties":{"OBJECTID":238,"UNIT_ID":3759,"Name":"جمال\u00A0جبر\u00A0عبد\u00A0القادر\u00A0زبيدية\u00A0/\u00A0جمال\u00A0جبر\u00A0عبد\u00A0القادر\u00A0زبيدية","elec_numb":1548,"Water_numb":1317,"bod_permit":0,"crafts_lic":0,"Edu_tax":0,"Permit_cus":0,"GDPT":0,"Block_Number":24289,"Parcel_Number":83}},{"type":"Feature","id":239,"geometry":{"type":"Point","coordinates":[35.184991537290877,32.076993136798151]},"properties":{"OBJECTID":239,"UNIT_ID":3760,"Name":"محمود محمد دواهقة","elec_numb":-1,"Water_numb":3664,"bod_permit":-1,"crafts_lic":0,"Edu_tax":0,"Permit_cus":0,"GDPT":0,"Block_Number":24289,"Parcel_Number":84}},{"type":"Feature","id":240,"geometry":{"type":"Point","coordinates":[35.185054024280049,32.077004126481945]},"properties":{"OBJECTID":240,"UNIT_ID":3761,"Name":"عبد\u00A0المهدي\u00A0محمد\u00A0محمود\u00A0دواقه\u00A0/\u00A0عبد\u00A0المهدي\u00A0محمد\u00A0محمود\u00A0دواقه","elec_numb":2660,"Water_numb":-1,"bod_permit":-1,"crafts_lic":0,"Edu_tax":0,"Permit_cus":0,"GDPT":0,"Block_Number":24289,"Parcel_Number":84}},{"type":"Feature","id":241,"geometry":{"type":"Point","coordinates":[35.185056972342565,32.076984321721071]},"properties":{"OBJECTID":241,"UNIT_ID":3762,"Name":"عبد\u00A0المهدي\u00A0محمد\u00A0محمود\u00A0دواقه\u00A0/\u00A0عبد\u00A0المهدي\u00A0محمد\u00A0محمود\u00A0دواقه","elec_numb":128,"Water_numb":-1,"bod_permit":-1,"crafts_lic":0,"Edu_tax":0,"Permit_cus":0,"GDPT":0,"Block_Number":24289,"Parcel_Number":84}},{"type":"Feature","id":242,"geometry":{"type":"Point","coordinates":[35.184726613374437,32.07695680862944]},"properties":{"OBJECTID":242,"UNIT_ID":3763,"Name":"جميل موسى عبد الجبار أبو زاهر","elec_numb":-1,"Water_numb":-1,"bod_permit":0,"crafts_lic":0,"Edu_tax":0,"Permit_cus":0,"GDPT":0,"Block_Number":24289,"Parcel_Number":82}},{"type":"Feature","id":243,"geometry":{"type":"Point","coordinates":[35.183324274119286,32.076380896350109]},"properties":{"OBJECTID":243,"UNIT_ID":3764,"Name":"عبد الرحيم حسين يوسف دحدول","elec_numb":4899,"Water_numb":3251,"bod_permit":4225,"crafts_lic":0,"Edu_tax":0,"Permit_cus":0,"GDPT":0,"Block_Number":24289,"Parcel_Number":90}},{"type":"Feature","id":244,"geometry":{"type":"Point","coordinates":[35.184716916477313,32.076991005350955]},"properties":{"OBJECTID":244,"UNIT_ID":3765,"Name":"جميل موسى عبد الجبار أبو زاهر","elec_numb":-1,"Water_numb":-1,"bod_permit":0,"crafts_lic":0,"Edu_tax":0,"Permit_cus":0,"GDPT":0,"Block_Number":24289,"Parcel_Number":82}},{"type":"Feature","id":245,"geometry":{"type":"Point","coordinates":[35.184701372853432,32.077022899303159]},"properties":{"OBJECTID":245,"UNIT_ID":3766,"Name":"حسن جميل موسى أبو زاهر","elec_numb":-1,"Water_numb":-1,"bod_permit":0,"crafts_lic":0,"Edu_tax":0,"Permit_cus":0,"GDPT":0,"Block_Number":24289,"Parcel_Number":82}},{"type":"Feature","id":246,"geometry":{"type":"Point","coordinates":[35.183381736076669,32.076330800231418]},"properties":{"OBJECTID":246,"UNIT_ID":3767,"Name":"عبد الرحيم يوسف دحدول","elec_numb":4177,"Water_numb":-1,"bod_permit":4146,"crafts_lic":0,"Edu_tax":0,"Permit_cus":0,"GDPT":0,"Block_Number":24289,"Parcel_Number":90}},{"type":"Feature","id":247,"geometry":{"type":"Point","coordinates":[35.182973698162996,32.076270279110616]},"properties":{"OBJECTID":247,"UNIT_ID":3768,"Name":"رشيد تنورة","elec_numb":2027,"Water_numb":1713,"bod_permit":2680,"crafts_lic":0,"Edu_tax":0,"Permit_cus":0,"GDPT":0,"Block_Number":24289,"Parcel_Number":94}},{"type":"Feature","id":248,"geometry":{"type":"Point","coordinates":[35.183313758811444,32.076405948085515]},"properties":{"OBJECTID":248,"UNIT_ID":3769,"Name":"عبد الرحيم  حسن يوسف دحدول","elec_numb":5579,"Water_numb":4408,"bod_permit":-1,"crafts_lic":0,"Edu_tax":0,"Permit_cus":0,"GDPT":0,"Block_Number":24289,"Parcel_Number":90}},{"type":"Feature","id":249,"geometry":{"type":"Point","coordinates":[35.183305344281067,32.076429211038977]},"properties":{"OBJECTID":249,"UNIT_ID":3770,"Name":"عبد الرحيم يوسف دحدول","elec_numb":5373,"Water_numb":4295,"bod_permit":-1,"crafts_lic":0,"Edu_tax":0,"Permit_cus":0,"GDPT":0,"Block_Number":24289,"Parcel_Number":90}},{"type":"Feature","id":250,"geometry":{"type":"Point","coordinates":[35.183833216894477,32.078958607921365]},"properties":{"OBJECTID":250,"UNIT_ID":3782,"Name":"محمد عبد الكريم عفيفي شلوف","elec_numb":4294,"Water_numb":3352,"bod_permit":-1,"crafts_lic":0,"Edu_tax":0,"Permit_cus":0,"GDPT":0,"Block_Number":24289,"Parcel_Number":19}},{"type":"Feature","id":251,"geometry":{"type":"Point","coordinates":[35.183901297493712,32.079014040457345]},"properties":{"OBJECTID":251,"UNIT_ID":3783,"Name":"محمد عبد الكريم عفيفي شلوف","elec_numb":4296,"Water_numb":3354,"bod_permit":3869,"crafts_lic":0,"Edu_tax":0,"Permit_cus":0,"GDPT":0,"Block_Number":24289,"Parcel_Number":19}},{"type":"Feature","id":252,"geometry":{"type":"Point","coordinates":[35.183881673848617,32.079130797756775]},"properties":{"OBJECTID":252,"UNIT_ID":3784,"Name":"ورثة  عبد الكريم عفيف شلوف","elec_numb":-1,"Water_numb":151,"bod_permit":3408,"crafts_lic":0,"Edu_tax":0,"Permit_cus":0,"GDPT":0,"Block_Number":24289,"Parcel_Number":18}},{"type":"Feature","id":253,"geometry":{"type":"Point","coordinates":[35.183810190865834,32.079203797773438]},"properties":{"OBJECTID":253,"UNIT_ID":3785,"Name":"ورثة  عبد الكريم عفيف شلوف","elec_numb":814,"Water_numb":769,"bod_permit":3025,"crafts_lic":0,"Edu_tax":0,"Permit_cus":0,"GDPT":0,"Block_Number":24289,"Parcel_Number":18}},{"type":"Feature","id":254,"geometry":{"type":"Point","coordinates":[35.183988388831743,32.079006887436549]},"properties":{"OBJECTID":254,"UNIT_ID":3786,"Name":"محمد عبد الكريم عفيفي شلوف","elec_numb":4295,"Water_numb":3353,"bod_permit":3034,"crafts_lic":0,"Edu_tax":0,"Permit_cus":0,"GDPT":0,"Block_Number":24289,"Parcel_Number":19}},{"type":"Feature","id":255,"geometry":{"type":"Point","coordinates":[35.183950768452952,32.078977901958986]},"properties":{"OBJECTID":255,"UNIT_ID":3787,"Name":"محمد عبد الكريم عفيفي شلوف","elec_numb":2767,"Water_numb":2152,"bod_permit":3175,"crafts_lic":0,"Edu_tax":0,"Permit_cus":0,"GDPT":0,"Block_Number":24289,"Parcel_Number":19}},{"type":"Feature","id":256,"geometry":{"type":"Point","coordinates":[35.183868197684859,32.079208820443064]},"properties":{"OBJECTID":256,"UNIT_ID":3788,"Name":"فواز عبد الكريم عفيف شلوف","elec_numb":-1,"Water_numb":2819,"bod_permit":-1,"crafts_lic":0,"Edu_tax":0,"Permit_cus":0,"GDPT":0,"Block_Number":24289,"Parcel_Number":18}},{"type":"Feature","id":257,"geometry":{"type":"Point","coordinates":[35.183858125114298,32.079160858168514]},"properties":{"OBJECTID":257,"UNIT_ID":3789,"Name":"خالد عبد الكريم عفيف شلوف","elec_numb":2703,"Water_numb":2820,"bod_permit":3774,"crafts_lic":0,"Edu_tax":0,"Permit_cus":0,"GDPT":0,"Block_Number":24289,"Parcel_Number":18}},{"type":"Feature","id":258,"geometry":{"type":"Point","coordinates":[35.18383709378886,32.079205234998817]},"properties":{"OBJECTID":258,"UNIT_ID":3790,"Name":"ناصر عبد الكريم عفيف شلوف","elec_numb":-1,"Water_numb":-1,"bod_permit":-1,"crafts_lic":0,"Edu_tax":0,"Permit_cus":0,"GDPT":0,"Block_Number":24289,"Parcel_Number":18}},{"type":"Feature","id":259,"geometry":{"type":"Point","coordinates":[35.183806002717375,32.079156551067513]},"properties":{"OBJECTID":259,"UNIT_ID":3791,"Name":"سعيد عبد الكريم عفيف شلوف","elec_numb":4526,"Water_numb":-1,"bod_permit":4226,"crafts_lic":0,"Edu_tax":0,"Permit_cus":0,"GDPT":0,"Block_Number":24289,"Parcel_Number":18}},{"type":"Feature","id":260,"geometry":{"type":"Point","coordinates":[35.183821100942623,32.079283585389121]},"properties":{"OBJECTID":260,"UNIT_ID":3792,"Name":"جمال محمد عمر ابو لاوي","elec_numb":708,"Water_numb":589,"bod_permit":1247,"crafts_lic":0,"Edu_tax":0,"Permit_cus":0,"GDPT":0,"Block_Number":24289,"Parcel_Number":17}},{"type":"Feature","id":261,"geometry":{"type":"Point","coordinates":[35.183851926349462,32.079283592260722]},"properties":{"OBJECTID":261,"UNIT_ID":3793,"Name":"ختام محمد عمر ابو لاوي واختها نهلة","elec_numb":2720,"Water_numb":-1,"bod_permit":1010,"crafts_lic":0,"Edu_tax":0,"Permit_cus":0,"GDPT":0,"Block_Number":24289,"Parcel_Number":17}},{"type":"Feature","id":262,"geometry":{"type":"Point","coordinates":[35.183980017189882,32.079190950014272]},"properties":{"OBJECTID":262,"UNIT_ID":3794,"Name":"فواز عبد الكريم عفيف شلوف","elec_numb":5125,"Water_numb":-1,"bod_permit":3041,"crafts_lic":0,"Edu_tax":0,"Permit_cus":0,"GDPT":0,"Block_Number":24289,"Parcel_Number":18}},{"type":"Feature","id":263,"geometry":{"type":"Point","coordinates":[35.183986758527531,32.079139411159481]},"properties":{"OBJECTID":263,"UNIT_ID":3795,"Name":"خالد عبد الكريم عفيف شلوف","elec_numb":-1,"Water_numb":-1,"bod_permit":1020,"crafts_lic":0,"Edu_tax":0,"Permit_cus":0,"GDPT":0,"Block_Number":24289,"Parcel_Number":18}},{"type":"Feature","id":264,"geometry":{"type":"Point","coordinates":[35.184127849109508,32.079342150603729]},"properties":{"OBJECTID":264,"UNIT_ID":3796,"Name":"فتحي عثمان حسن اسليم","elec_numb":2802,"Water_numb":648,"bod_permit":1251,"crafts_lic":0,"Edu_tax":0,"Permit_cus":0,"GDPT":0,"Block_Number":24289,"Parcel_Number":11}},{"type":"Feature","id":265,"geometry":{"type":"Point","coordinates":[35.183845585662326,32.079595781058408]},"properties":{"OBJECTID":265,"UNIT_ID":3797,"Name":"نضال احمد عطا ماضي","elec_numb":407,"Water_numb":605,"bod_permit":0,"crafts_lic":0,"Edu_tax":0,"Permit_cus":0,"GDPT":0,"Block_Number":24289,"Parcel_Number":9}},{"type":"Feature","id":266,"geometry":{"type":"Point","coordinates":[35.184045462738673,32.079337120857204]},"properties":{"OBJECTID":266,"UNIT_ID":3798,"Name":"فتحي عثمان حسن اسليم","elec_numb":4838,"Water_numb":3709,"bod_permit":2657,"crafts_lic":0,"Edu_tax":0,"Permit_cus":0,"GDPT":0,"Block_Number":24289,"Parcel_Number":11}},{"type":"Feature","id":267,"geometry":{"type":"Point","coordinates":[35.184122370806357,32.079388679101363]},"properties":{"OBJECTID":267,"UNIT_ID":3799,"Name":"فتحي عثمان حسن اسليم","elec_numb":4839,"Water_numb":-1,"bod_permit":1494,"crafts_lic":0,"Edu_tax":0,"Permit_cus":0,"GDPT":0,"Block_Number":24289,"Parcel_Number":11}},{"type":"Feature","id":268,"geometry":{"type":"Point","coordinates":[35.181765018604935,32.079202763986217]},"properties":{"OBJECTID":268,"UNIT_ID":3800,"Name":"حسام بني نمرة","elec_numb":2072,"Water_numb":1709,"bod_permit":2682,"crafts_lic":0,"Edu_tax":0,"Permit_cus":0,"GDPT":0,"Block_Number":24290,"Parcel_Number":49}},{"type":"Feature","id":269,"geometry":{"type":"Point","coordinates":[35.181836485066086,32.079181663501238]},"properties":{"OBJECTID":269,"UNIT_ID":3801,"Name":"حسام بني نمرة","elec_numb":4657,"Water_numb":3627,"bod_permit":4006,"crafts_lic":0,"Edu_tax":0,"Permit_cus":0,"GDPT":0,"Block_Number":24290,"Parcel_Number":49}},{"type":"Feature","id":270,"geometry":{"type":"Point","coordinates":[35.181596969531221,32.079039057127751]},"properties":{"OBJECTID":270,"UNIT_ID":3802,"Name":"محمود يوسف عبد الجواد البر","elec_numb":2054,"Water_numb":1732,"bod_permit":2716,"crafts_lic":0,"Edu_tax":0,"Permit_cus":0,"GDPT":0,"Block_Number":24290,"Parcel_Number":59}},{"type":"Feature","id":271,"geometry":{"type":"Point","coordinates":[35.181605926062147,32.079072942440597]},"properties":{"OBJECTID":271,"UNIT_ID":3803,"Name":"محمود يوسف عبد الجواد البر","elec_numb":4785,"Water_numb":-1,"bod_permit":-1,"crafts_lic":0,"Edu_tax":0,"Permit_cus":0,"GDPT":0,"Block_Number":24290,"Parcel_Number":59}},{"type":"Feature","id":272,"geometry":{"type":"Point","coordinates":[35.181472835806396,32.07892441011861]},"properties":{"OBJECTID":272,"UNIT_ID":3804,"Name":"علياء علي محمد ياسين","elec_numb":2312,"Water_numb":1473,"bod_permit":2043,"crafts_lic":0,"Edu_tax":0,"Permit_cus":0,"GDPT":0,"Block_Number":24290,"Parcel_Number":73}},{"type":"Feature","id":273,"geometry":{"type":"Point","coordinates":[35.181270036162026,32.079092667490208]},"properties":{"OBJECTID":273,"UNIT_ID":3805,"Name":"حسن مصطفى أبو سليمة","elec_numb":1448,"Water_numb":1279,"bod_permit":2143,"crafts_lic":0,"Edu_tax":0,"Permit_cus":0,"GDPT":0,"Block_Number":24290,"Parcel_Number":60}},{"type":"Feature","id":274,"geometry":{"type":"Point","coordinates":[35.181837269699173,32.079050353487332]},"properties":{"OBJECTID":274,"UNIT_ID":3806,"Name":"محمد عمران عبد الحافظ فاتوني","elec_numb":3059,"Water_numb":2316,"bod_permit":2776,"crafts_lic":0,"Edu_tax":0,"Permit_cus":0,"GDPT":0,"Block_Number":24290,"Parcel_Number":58}},{"type":"Feature","id":275,"geometry":{"type":"Point","coordinates":[35.181315433934259,32.079090531232595]},"properties":{"OBJECTID":275,"UNIT_ID":3808,"Name":"حسن مصطفى أبو سليمة","elec_numb":2723,"Water_numb":-1,"bod_permit":1818,"crafts_lic":0,"Edu_tax":0,"Permit_cus":0,"GDPT":0,"Block_Number":24290,"Parcel_Number":60}},{"type":"Feature","id":276,"geometry":{"type":"Point","coordinates":[35.180788899671626,32.079397144467684]},"properties":{"OBJECTID":276,"UNIT_ID":3830,"Name":"فتحي مراد فتحي اسليم","elec_numb":-1,"Water_numb":-1,"bod_permit":2511,"crafts_lic":0,"Edu_tax":0,"Permit_cus":0,"GDPT":0,"Block_Number":24290,"Parcel_Number":72}},{"type":"Feature","id":277,"geometry":{"type":"Point","coordinates":[35.1808483214106,32.079361844747588]},"properties":{"OBJECTID":277,"UNIT_ID":3831,"Name":"احمد مراد فتحي اسليم","elec_numb":3674,"Water_numb":3793,"bod_permit":4519,"crafts_lic":0,"Edu_tax":0,"Permit_cus":0,"GDPT":0,"Block_Number":24290,"Parcel_Number":72}},{"type":"Feature","id":278,"geometry":{"type":"Point","coordinates":[35.180757525328346,32.079363731535729]},"properties":{"OBJECTID":278,"UNIT_ID":3832,"Name":"مراد فتحي عثمان اسليم","elec_numb":2533,"Water_numb":1564,"bod_permit":0,"crafts_lic":0,"Edu_tax":0,"Permit_cus":0,"GDPT":0,"Block_Number":24290,"Parcel_Number":72}},{"type":"Feature","id":279,"geometry":{"type":"Point","coordinates":[35.185454562938752,32.078705422869319]},"properties":{"OBJECTID":279,"UNIT_ID":3833,"Name":"زهير توفيق عواد","elec_numb":780,"Water_numb":601,"bod_permit":1346,"crafts_lic":0,"Edu_tax":0,"Permit_cus":0,"GDPT":0,"Block_Number":24289,"Parcel_Number":36}},{"type":"Feature","id":280,"geometry":{"type":"Point","coordinates":[35.180399497764888,32.079328828658781]},"properties":{"OBJECTID":280,"UNIT_ID":3834,"Name":"ابو يوسف","elec_numb":3603,"Water_numb":1966,"bod_permit":-1,"crafts_lic":0,"Edu_tax":0,"Permit_cus":0,"GDPT":0,"Block_Number":24290,"Parcel_Number":88}},{"type":"Feature","id":281,"geometry":{"type":"Point","coordinates":[35.180358428225453,32.079371888617509]},"properties":{"OBJECTID":281,"UNIT_ID":3835,"Name":"مارسيل","elec_numb":3476,"Water_numb":2656,"bod_permit":-1,"crafts_lic":0,"Edu_tax":0,"Permit_cus":0,"GDPT":0,"Block_Number":24290,"Parcel_Number":88}},{"type":"Feature","id":282,"geometry":{"type":"Point","coordinates":[35.185277647053418,32.07859026524855]},"properties":{"OBJECTID":282,"UNIT_ID":3836,"Name":"الاوقاف","elec_numb":-1,"Water_numb":-1,"bod_permit":2147,"crafts_lic":0,"Edu_tax":0,"Permit_cus":0,"GDPT":0,"Block_Number":24289,"Parcel_Number":35}},{"type":"Feature","id":283,"geometry":{"type":"Point","coordinates":[35.180353328909199,32.079327565347398]},"properties":{"OBJECTID":283,"UNIT_ID":3837,"Name":"نزيه احمد سليم عقل","elec_numb":3975,"Water_numb":2766,"bod_permit":-1,"crafts_lic":0,"Edu_tax":0,"Permit_cus":0,"GDPT":0,"Block_Number":24290,"Parcel_Number":88}},{"type":"Feature","id":284,"geometry":{"type":"Point","coordinates":[35.180467657469478,32.079346145744644]},"properties":{"OBJECTID":284,"UNIT_ID":3838,"Name":"حليمة عبدالرحمن احمد شاهين","elec_numb":3456,"Water_numb":2641,"bod_permit":-1,"crafts_lic":0,"Edu_tax":0,"Permit_cus":0,"GDPT":0,"Block_Number":24290,"Parcel_Number":88}},{"type":"Feature","id":285,"geometry":{"type":"Point","coordinates":[35.180525319949375,32.079332737984238]},"properties":{"OBJECTID":285,"UNIT_ID":3839,"Name":"وليد ماجد الدكيك","elec_numb":2359,"Water_numb":2901,"bod_permit":2943,"crafts_lic":0,"Edu_tax":0,"Permit_cus":0,"GDPT":0,"Block_Number":24290,"Parcel_Number":88}},{"type":"Feature","id":286,"geometry":{"type":"Point","coordinates":[35.180418405097875,32.079351979194726]},"properties":{"OBJECTID":286,"UNIT_ID":3840,"Name":"خديجة حمد عبدالمعطي عبية","elec_numb":3281,"Water_numb":2388,"bod_permit":-1,"crafts_lic":0,"Edu_tax":0,"Permit_cus":0,"GDPT":0,"Block_Number":24290,"Parcel_Number":88}},{"type":"Feature","id":287,"geometry":{"type":"Point","coordinates":[35.180441611281914,32.079305098155828]},"properties":{"OBJECTID":287,"UNIT_ID":3841,"Name":"ماجد الدكيك","elec_numb":3547,"Water_numb":2716,"bod_permit":-1,"crafts_lic":0,"Edu_tax":0,"Permit_cus":0,"GDPT":0,"Block_Number":24290,"Parcel_Number":88}},{"type":"Feature","id":288,"geometry":{"type":"Point","coordinates":[35.184934064275495,32.078480049053482]},"properties":{"OBJECTID":288,"UNIT_ID":3842,"Name":"فتحي احمد ذيب علقم","elec_numb":1644,"Water_numb":2080,"bod_permit":-1,"crafts_lic":0,"Edu_tax":0,"Permit_cus":0,"GDPT":0,"Block_Number":24289,"Parcel_Number":34}},{"type":"Feature","id":289,"geometry":{"type":"Point","coordinates":[35.185027792798273,32.078511924016347]},"properties":{"OBJECTID":289,"UNIT_ID":3843,"Name":"احمد ذيب داود علقم","elec_numb":897,"Water_numb":730,"bod_permit":1126,"crafts_lic":0,"Edu_tax":0,"Permit_cus":0,"GDPT":0,"Block_Number":24289,"Parcel_Number":34}},{"type":"Feature","id":290,"geometry":{"type":"Point","coordinates":[35.180440340386312,32.079332538226225]},"properties":{"OBJECTID":290,"UNIT_ID":3844,"Name":"مهدي","elec_numb":3462,"Water_numb":-1,"bod_permit":-1,"crafts_lic":0,"Edu_tax":0,"Permit_cus":0,"GDPT":0,"Block_Number":24290,"Parcel_Number":88}},{"type":"Feature","id":291,"geometry":{"type":"Point","coordinates":[35.185008301193697,32.078563221219703]},"properties":{"OBJECTID":291,"UNIT_ID":3845,"Name":"شفيق احمد ذيب علقم","elec_numb":3640,"Water_numb":2783,"bod_permit":3279,"crafts_lic":0,"Edu_tax":0,"Permit_cus":0,"GDPT":0,"Block_Number":24289,"Parcel_Number":34}},{"type":"Feature","id":292,"geometry":{"type":"Point","coordinates":[35.184828291775261,32.078550140168971]},"properties":{"OBJECTID":292,"UNIT_ID":3846,"Name":"محمد احمد ذيب علقم","elec_numb":2335,"Water_numb":1953,"bod_permit":-1,"crafts_lic":0,"Edu_tax":0,"Permit_cus":0,"GDPT":0,"Block_Number":24289,"Parcel_Number":34}},{"type":"Feature","id":293,"geometry":{"type":"Point","coordinates":[35.180217080408113,32.079100998923671]},"properties":{"OBJECTID":293,"UNIT_ID":3847,"Name":"طه سليمان عبد جزمة","elec_numb":3269,"Water_numb":2382,"bod_permit":3277,"crafts_lic":0,"Edu_tax":0,"Permit_cus":0,"GDPT":0,"Block_Number":24290,"Parcel_Number":96}},{"type":"Feature","id":294,"geometry":{"type":"Point","coordinates":[35.180104622090667,32.079373091005472]},"properties":{"OBJECTID":294,"UNIT_ID":3848,"Name":"طارق شمس حسن مرايطة","elec_numb":0,"Water_numb":0,"bod_permit":3181,"crafts_lic":0,"Edu_tax":0,"Permit_cus":0,"GDPT":0,"Block_Number":24290,"Parcel_Number":89}},{"type":"Feature","id":295,"geometry":{"type":"Point","coordinates":[35.184767205290498,32.078534616209126]},"properties":{"OBJECTID":295,"UNIT_ID":3849,"Name":"إياد احمد ذيب علقم","elec_numb":1866,"Water_numb":1510,"bod_permit":2211,"crafts_lic":0,"Edu_tax":0,"Permit_cus":0,"GDPT":0,"Block_Number":24289,"Parcel_Number":34}},{"type":"Feature","id":296,"geometry":{"type":"Point","coordinates":[35.179940690982953,32.078868801837316]},"properties":{"OBJECTID":296,"UNIT_ID":3850,"Name":"سليمان سالم ذيب غنيم","elec_numb":2849,"Water_numb":2187,"bod_permit":3908,"crafts_lic":0,"Edu_tax":0,"Permit_cus":0,"GDPT":0,"Block_Number":24290,"Parcel_Number":117}},{"type":"Feature","id":297,"geometry":{"type":"Point","coordinates":[35.184797263005521,32.078836278501122]},"properties":{"OBJECTID":297,"UNIT_ID":3851,"Name":"تيسير شحادة سعيد المصري","elec_numb":-1,"Water_numb":3618,"bod_permit":2510,"crafts_lic":0,"Edu_tax":0,"Permit_cus":0,"GDPT":0,"Block_Number":24289,"Parcel_Number":21}},{"type":"Feature","id":298,"geometry":{"type":"Point","coordinates":[35.184708573482347,32.078822658671143]},"properties":{"OBJECTID":298,"UNIT_ID":3852,"Name":"تيسير شحادة سعيد المصري","elec_numb":1810,"Water_numb":1489,"bod_permit":2980,"crafts_lic":0,"Edu_tax":0,"Permit_cus":0,"GDPT":0,"Block_Number":24289,"Parcel_Number":21}},{"type":"Feature","id":299,"geometry":{"type":"Point","coordinates":[35.184687113520312,32.078896028015208]},"properties":{"OBJECTID":299,"UNIT_ID":3853,"Name":"تيسير شحادة سعيد المصري","elec_numb":-1,"Water_numb":-1,"bod_permit":4650,"crafts_lic":0,"Edu_tax":0,"Permit_cus":0,"GDPT":0,"Block_Number":24289,"Parcel_Number":21}},{"type":"Feature","id":300,"geometry":{"type":"Point","coordinates":[35.18333625831125,32.079026884742056]},"properties":{"OBJECTID":300,"UNIT_ID":3854,"Name":"طالب حسن محمد ياسين","elec_numb":656,"Water_numb":-1,"bod_permit":1679,"crafts_lic":0,"Edu_tax":0,"Permit_cus":0,"GDPT":0,"Block_Number":24290,"Parcel_Number":55}},{"type":"Feature","id":301,"geometry":{"type":"Point","coordinates":[35.183474158016637,32.079179183191144]},"properties":{"OBJECTID":301,"UNIT_ID":3855,"Name":"يوسف صالح محمد ناصيف","elec_numb":511,"Water_numb":535,"bod_permit":1752,"crafts_lic":0,"Edu_tax":0,"Permit_cus":0,"GDPT":0,"Block_Number":24290,"Parcel_Number":54}},{"type":"Feature","id":302,"geometry":{"type":"Point","coordinates":[35.179955852061759,32.078664395653433]},